stop_id,stop_code,stop_name,stop_lat,stop_lon
Chełmońskiego,51.1037567700,17.0909274000
Inowrocławska,51.1154377400,17.0152886900
WAŁBRZYSKA,51.0648963600,16.9761323900
Spółdzielcza,51.1022060200,17.1018083900
Racławicka_(Gimnazjum_nr_23),51.0846813500,17.0069504700
Wilczyce_-_Wilczycka,51.1293829000,17.1550452900
Godebskiego_(AWF_Wrocław),51.1138679100,17.0987194000
DŁUGA_(Politechnika),51.1252886200,17.0100183300
Palacha,51.1405715000,17.1264309300
KRZYKI,51.0749540900,17.0063847900
Św._Katarzyna_-_Główna_n_ż,51.0321000000,17.1256280000
DWORCOWA,51.1010645000,17.0403796400
Sowia,51.0737926200,17.0018449400
Żernicka_(Stacja_kolejowa),51.1260832900,16.9142594700
Budziwojowice,51.2288538000,17.1881141400
Brzezina_-_Chrobrego,51.2015223000,16.8347398000
Marcepanowa,51.0623652800,16.9763931500
Gorlicka,51.1439651400,17.1186928600
pl._Strzegomski_(Muzeum_Współczesne),51.1129278900,17.0077196800
ROD_Bielany,51.0552190800,16.9775086500
Borowa_-_skrzyżowanie,51.1949495000,17.2791301000
Różanka,51.1395030400,17.0216930800
PL._STASZICA,51.1224616700,17.0302606800
Biskupice_Podgórne_LG_Chem,51.0159220000,16.8869780000
JARNOŁTÓW,51.1214176400,16.8439344000
Marcepanowa,51.0617578900,16.9758113000
Joannitów,51.0940895400,17.0338478400
KROMERA,51.1320221100,17.0656813700
Jordanowska,51.0787080000,16.9577690000
Fiołkowa,51.0930791900,16.9782840400
LITEWSKA_(pętla),51.1422889200,17.1275839200
Krępicka,51.1505124500,16.8552577400
Gałów_-_ferma,51.1182359000,16.8258072000
Strumykowa,51.1015646100,17.1571887000
OSIEDLE_SOBIESKIEGO_(pętla),51.1592538700,17.1327617400
Adamczewskich,51.1209533900,16.8695615700
Komandorska,51.0923578800,17.0233312900
DWORZEC_GŁÓWNY,51.0996927600,17.0355198300
KRZYKI,51.0748836600,17.0065686100
Niedziałkowskiego,51.1095289200,17.1384195100
Odrodzenia_Polski,51.1628800000,17.1274090000
Kamienna,51.0859398000,17.0465032900
Śliczna,51.0857054600,17.0353824900
ROD_Tysiąclecia,51.1113787900,16.9525599400
Metalowców,51.1327735200,16.9574495900
Mirków_-_Wolności,51.1636230900,17.1570680000
Renoma,51.1042864100,17.0300933000
Odrodzenia_Polski,51.1631200000,17.1275890000
Kromera_(Czajkowskiego),51.1355758100,17.0690750500
Szkolna,51.1316081900,16.8481725900
Kamieńskiego,51.1395550400,17.0317598400
Strachowicka,51.1235147500,16.9190698800
KRZYKI,51.0743848600,17.0066998900
Gospodarska,51.1185260000,17.1235890000
Swojczycka,51.1141008400,17.1170798400
Bielany_-_MAKRO,51.0466739600,16.9703692700
Serbska_(C.K._Agora),51.1337097500,17.0201518000
Kosmonautów_(Szpital),51.1418478700,16.9058947000
KOWALE,51.1289588800,17.1016547400
JERZMANOWO_(Cmentarz_I),51.1236229900,16.8837995500
SIECHNICE_-_TIM,51.0280580000,17.1637440000
Magellana,51.1135545300,17.1213349700
Kominiarska,51.1689266600,16.9971452000
Ratyń_-_skrzyżowanie,51.1302853900,16.8476622600
LEŚNICA,51.1455383300,16.8703672200
PL._DANIŁOWSKIEGO,51.1383443100,17.0599882600
STADION_WROCŁAW_(Królewiecka),51.1451620400,16.9491360000
KROMERA,51.1317652000,17.0652074000
LUTYNIA,51.1350080000,16.7834535000
SĘPOLNO,51.1138712400,17.1039946400
PILCZYCE,51.1364290200,16.9505078100
GALERIA_DOMINIKAŃSKA,51.1089984000,17.0411773100
Bajana,51.1307276200,16.9671791900
Uniwersytet_Ekonomiczny,51.0902433500,17.0286277000
Modra,51.1366740600,16.9666521900
Jerzmanowska,51.1261206400,16.9089938100
Kosmonautów_(Szpital),51.1418459500,16.9059439000
Stadion_Olimpijski,51.1168254300,17.0900745800
Swojczyce,51.1145818000,17.1288162200
Hotel_Wrocław,51.0978092500,17.0253910500
Broniewskiego,51.1353023000,17.0363349100
Kołobrzeska,51.1215371800,16.9469938200
Kosmonautów_(Szpital),51.1417354600,16.9060826300
Lipska,51.1448119600,16.9867691300
Wzgórze_Partyzantów,51.1042805600,17.0374997100
Biestrzyków_-_skrzyżowanie,51.0357300000,17.0430620000
Pawłowice,51.1655438200,17.1063972500
Na_Ostatnim_Groszu,51.1231804900,16.9750780800
Pasikurowice-Energetyczna,51.2153417000,17.1111060000
Psie_Pole_(Rondo_Lotników_Polskich),51.1471111900,17.1166803100
Bociania,51.1298715700,17.0978813500
Bierutowska,51.1537872200,17.1363615100
Krzemieniecka,51.0963781000,16.9569500200
Strumykowa,51.1014093100,17.1577110900
Mroźna,51.1348601600,17.1384322200
Oboźna,51.0582983800,17.0325979100
Glinianki,51.1381194700,16.9362835200
Kopańskiego,51.1549566500,17.1193374700
ROD_Bajki,51.0830188600,17.0360095600
ROD_Storczyk,51.0476633700,17.0160435600
Brücknera,51.1395148500,17.0810791400
Mokrzańska,51.1475429900,16.8531224500
Narodowe_Forum_Muzyki,51.1078990000,17.0262940000
DWORZEC_AUTOBUSOWY,51.0956500000,17.0379040000
Wzgórze_Partyzantów,51.1049242300,17.0379534500
Dąbrowica,51.2174882700,17.2168247400
Pomorska,51.1172674600,17.0318991700
ROD_Storczyk,51.0477536300,17.0159136000
Średzka,51.1452856500,16.8663489400
Siedlec-szkoła,51.2309840000,17.1157700000
Reja,51.1124187900,17.0570093800
Park_Wschodni,51.0851939600,17.0721274500
Pawłowice,51.1654326600,17.1065903300
Reja,51.1127861300,17.0555646400
PL._STASZICA,51.1225051400,17.0309683500
Paulińska,51.1202896900,17.0354275900
Klimasa,51.0800034400,17.0625517600
Wiśniowa,51.0844577800,17.0256820800
Chełmońskiego,51.1038835600,17.0907119500
EPI,51.0976473400,17.0290176100
Jerzmanowska,51.1260826600,16.9098917700
Berenta,51.1355112000,17.0575858200
STĘPIN_-_pętla,51.2134415000,17.2855453000
BIELANY_WROCŁAWSKIE,51.0327015600,16.9677890500
Krzelowska,51.1774615200,16.8786003600
Rondo,51.0911494400,17.0178796300
Morwowa,51.0759126400,17.0519091400
KRAKOWSKA_(Centrum_handlowe),51.0900349300,17.0646568700
Siechnice,51.0299700000,17.1414140000
Uniwersytet,51.1137562100,17.0323867600
IWINY_-_pętla,51.0452600000,17.0717370000
PILCZYCKA_(Anima),51.1351552600,16.9692437400
Bezpieczna,51.1412386800,17.0250751400
Bzowa_(Centrum_Zajezdnia),51.0976059800,16.9926512100
Popowice,51.1263766400,16.9952899900
Wschowska,51.1449086300,16.8814493900
Dubois,51.1172784300,17.0342973300
Januszkowice,51.2211972000,17.2385123000
Monte_Cassino,51.1060319700,17.1055154300
LEŚNICA,51.1448916300,16.8716380400
Kośnego,51.1207106000,16.8640121100
Zagłoby,51.1095419000,16.9302482300
Kochanowskiego,51.1150627500,17.0736171000
Wyszyńskiego,51.1227988000,17.0528858000
Małomicka,51.1668052400,16.8867304900
Renoma,51.1041265100,17.0323177900
Psary_-_Szkoła,51.1867050000,17.0318510000
pl._Legionów,51.1041647100,17.0201090300
Długołęka_-_skrzyżowanie,51.1794482100,17.1904205500
Bociania,51.1298900800,17.0971764700
Groblice_II-Kotowicka,51.0135110000,17.1750000000
Pułtuska,51.0745575000,17.0164437100
Koszarowa,51.1402692700,17.0698749100
Zielna,51.1454497500,17.1079144100
Krajobrazowa,51.1291202900,16.8404182500
Wojszycka,51.0677188700,17.0143228000
Głubczycka,51.0800063400,17.0804495800
Poleska,51.1465301600,17.1290510900
Os._Przyjaźni,51.0695733800,16.9973643100
Ceglana,51.1198273100,17.1219478600
Paulińska,51.1209713200,17.0350055400
Blizanowicka,51.0758844300,17.0927620700
Łozina_-_cmentarz,51.2282950000,17.1806760000
Bielany_-_PKP,51.0382056000,16.9753721500
Stabłowicka_(Szkoła_Podstawowa_nr_22),51.1703400000,16.9016280000
PL._JANA_PAWŁA_II,51.1117500700,17.0204681500
GRABISZYŃSKA_(Cmentarz),51.0903793300,16.9767377500
Słowiańska,51.1240703500,17.0428228900
DW._ŚWIEBODZKI,51.1085111000,17.0188265300
Iwiny_-_Polna,51.0470300000,17.0820530000
Kamienna,51.0863024900,17.0468284400
Nowy_Dwór,51.1124566500,16.9607992200
Jarnołtowska_(Krzeptowska),51.1202956100,16.8558288700
Jerzmanowo,51.1209893100,16.8766318900
OPORÓW,51.0839290000,16.9709156700
Bielany_-_Kościół,51.0400724800,16.9690615300
Tyrmanda,51.1031001700,16.9455441500
Miłoszycka,51.1162510000,17.1276090000
Rękodzielnicza,51.1370464900,16.9578851800
Raków,51.1707118500,17.2771347900
Zielna,51.1451135500,17.1072601000
Kleczkowska,51.1272838100,17.0275841500
Na_Szańcach,51.1194001600,17.0420180500
Wyższa_Szkoła_Bankowa,51.1142409800,16.9780381500
PL._GRUNWALDZKI,51.1116106300,17.0604342000
Zacisze,51.1243518300,17.0778218200
PL._DANIŁOWSKIEGO,51.1385229200,17.0590853700
Godebskiego_(AWF_Wrocław),51.1139412900,17.0979923800
Eluarda,51.1462280000,16.8674081100
DWORZEC_AUTOBUSOWY,51.0971226700,17.0326441800
Adamczewskich,51.1208439600,16.8695348600
Rynek,51.1112028100,17.0270362800
Bąków,51.2119353200,17.1594618000
EPI,51.0978894400,17.0295311300
Kolejowa,51.1056127700,17.0149223500
Azaliowa,51.1639965000,17.1118338900
Uniwersytet_Ekonomiczny,51.0898889600,17.0286671900
Okrzei,51.1063521600,17.0992530800
Ozorzyce-Krasińskiego,50.9993410000,17.0833650000
Jordanowska,51.0796664900,16.9574772400
Niedziałkowskiego,51.1087563000,17.1396307100
Żerniki,51.1230927200,16.9248345000
Las_Osobowicki,51.1479741600,16.9838305100
Klimasa,51.0801615700,17.0624714800
KOZANÓW,51.1378201300,16.9679529700
Radio_i_Telewizja,51.0717340500,17.0059545500
ZACHODNIA_(Stacja_kolejowa),51.1163976900,17.0004091800
Aleja_Wędrowców,51.0879861000,16.9918824300
NOWY_DWÓR_(pętla),51.1194313300,16.9520998800
Jarocińska,51.1423082100,16.9902143800
Iwiny_-_Słoneczna,51.0437400000,17.0783200000
Braterska,51.0676164600,16.9995540000
Ślęza_(ul._Przystankowa),51.0369970000,16.9847500000
Bielany_-_skrzyżowanie,51.0390917500,16.9709403100
Park_Zachodni,51.1294052000,16.9714251000
ROD_Źródło_Zdrowia,51.1511971500,17.1077045100
Psie_Pole_(Gorlicka),51.1458387600,17.1137168100
Siechnice_-_Elektrociepłownia,51.0367500000,17.1441720000
Opatowicka_nr_85,51.0951554000,17.1230275700
Bociania,51.1297322500,17.0980540600
Paprotna,51.1481809800,17.0206268600
Przystankowa,51.0700097100,17.0321837600
Kośnego,51.1204467700,16.8631401000
Chełmońskiego,51.1037603000,17.0908703600
Kiełczów_-_osiedle,51.1324518000,17.1717445100
Kutrzeby,51.0518332200,17.0188292700
Zimowa,51.0720232900,17.0008125600
Ślusarska,51.0841596000,16.9903802000
Stanisławowska,51.0969461700,16.9468979100
Komuny_Paryskiej,51.1023005900,17.0466553900
pl._Orląt_Lwowskich,51.1074836000,17.0224198700
KRZYKI,51.0745604600,17.0067135000
Sulimów,51.0013220000,17.1262570000
Kamiennogórska_(Ośrodek_dla_niewidomych),51.1426287900,16.8997251000
Biskupice_Podgórne_LG_Display,51.0173300000,16.8800420000
Pietrzykowice,51.1233340200,17.2323170500
Bacciarellego,51.1054386700,17.1116518200
Las_Ratyński,51.1235167000,16.8330710000
Długołęka_-_skrzyżowanie,51.1787673000,17.1904503400
OSOBOWICE_(Stacja_kolejowa),51.1654575200,16.9989984500
Gajowa,51.0919339700,17.0399381800
Modra,51.1377356100,16.9648839000
Witkowska,51.1484043200,16.9889220200
Tokary_-_osiedle,51.2307025900,17.1347456300
Robotnicza_(Centrozłom),51.1091136500,17.0089554400
Godzieszowa_-_stajnia,51.2384200000,17.1282013000
Weigla_(Szpital),51.0773993700,17.0191201400
Bacciarellego,51.1056363100,17.1104913100
Polkowicka,51.1554325000,16.8734630700
Dzielna,51.1386343100,16.9768901400
Poznańska,51.1219902600,17.0124829500
Pułaskiego,51.0982992200,17.0429557600
Kępa_-_Skrzyżowanie,51.2410979000,17.1968078000
Jastrzębia,51.0837239800,17.0100384700
Krakowiany,51.2637789000,17.1902850000
Tymiankowa,51.1765761700,16.9919465400
Krucza,51.0944236000,17.0107815500
Mosty_Warszawskie,51.1283829800,17.0538427900
Kątna,51.1326714700,17.2835237400
Górnicza,51.1406265500,16.9582568900
Zbożowa,51.1735297900,16.9121521600
Morelowskiego,51.0696805600,16.9689522000
PL._JANA_PAWŁA_II,51.1121544100,17.0207247200
Kopernika,51.1124498000,17.0854671100
Narodowe_Forum_Muzyki,51.1078990000,17.0262940000
Przedwiośnie_(Stacja_kolejowa),51.1604270700,17.1224171100
Siechnice_-_Elektrociepłownia,51.0367500000,17.1443570000
Maślice_Małe,51.1533120800,16.9395463900
Sudecka,51.0844339100,17.0180651400
Redycka,51.1486843000,17.0755699000
Palacha,51.1404994500,17.1263193500
Spółdzielcza,51.1021114100,17.1023814200
Skierniewicka,51.0776501400,17.0144646000
Renoma,51.1037838900,17.0307293200
Żmigrodzka_(Obwodnica),51.1548384400,17.0288383100
Łozina_-_Nowego_Osiedla_I,51.2335288100,17.1718061300
BARDZKA,51.0832163600,17.0480013100
Dworzec_Główny_(Stawowa),51.0999048600,17.0338842900
Pomorska,51.1178954300,17.0308934600
FAT,51.0942408000,16.9803286000
Ślęza_(ul._Przystankowa),51.0374831000,16.9859783800
Urząd_Wojewódzki,51.1096733000,17.0477552500
Siechnice_-_Szkolna,51.0338400000,17.1471450000
Ceglana,51.1197409100,17.1218161200
Wschowska,51.1447810300,16.8817250400
Pułtuska,51.0747735700,17.0161786500
Zacisze,51.1241929000,17.0782392700
Dubois,51.1170118900,17.0332606000
Arkady_(Capitol),51.1020390600,17.0298365300
Oleśniczka_-_skrzyżowanie,51.1546719800,17.2825095700
Śniadeckich,51.1205704600,17.0773104000
Kliniki,51.1094524000,17.0661215100
Kolista,51.1332096600,16.9722292900
Kamiennogórska_(Ośrodek_dla_niewidomych),51.1424933800,16.9000487100
SĘPOLNO,51.1142851200,17.1038941200
OSOBOWICKA_(Cmentarz),51.1350718600,17.0057431500
Weigla_(Szpital),51.0767667200,17.0183333200
Grabiszyńska,51.1012382500,17.0137498600
Dmowskiego,51.1162438800,17.0247238200
Marchewkowa,51.0666983500,16.9741725100
GRABISZYŃSKA_(Cmentarz_II),51.0881142500,16.9756586700
Partynice,51.0608569900,16.9985086200
Prudnicka,51.0891998500,17.0451315000
Modra,51.1368106600,16.9666722700
PL._GRUNWALDZKI,51.1116205100,17.0600864200
Rzemieślnicza,51.1708793000,17.0037794600
Ostrowskiego,51.0951126700,16.9732223600
ZOO,51.1055608100,17.0778982000
Bojanowska,51.1653264500,16.8818990400
BARDZKA_(Cmentarz),51.0732655400,17.0532944900
PL._GRUNWALDZKI,51.1114516500,17.0605291900
Głogowska,51.1174262400,17.0035309700
Stalowa,51.0996657800,17.0016518700
Główna,51.1636348700,16.8966882100
Szczodre_-_Trzebnicka,51.1903616100,17.1841944200
Roweckiego,51.0507896000,17.0300235400
OSOBOWICKA_(Cmentarz),51.1354559000,17.0042563000
pl._Wróblewskiego,51.1053429000,17.0489335300
Skała,51.2556597000,17.2283084000
most_Milenijny,51.1365115200,16.9992727300
most_Osobowicki,51.1330231600,17.0261839300
Rynek,51.1098340800,17.0265935000
Szkocka,51.1091444900,16.9685528800
Przyjaźni,51.0687684000,17.0047434500
DWORZEC_NADODRZE,51.1242294000,17.0350092500
Okrzei,51.1064282400,17.0984639600
Śliczna,51.0850864300,17.0349837600
Działdowska,51.1331716300,17.1054383500
SPISKA_(Ośrodek_sportu),51.0835642600,17.0299742900
MOKRY_DWÓR,51.0710700000,17.1237490000
Bogusławice,50.9978560000,17.1049720000
Ratyń_-_skrzyżowanie,51.1306630400,16.8475935500
Kutrzeby,51.0523518500,17.0194239600
Metalowców,51.1322485600,16.9563613100
Kotowice_-_Cmentarna,51.0226600000,17.2333630000
Buforowa,51.0704560800,17.0539575000
Paprotna,51.1477521500,17.0205392900
Małopanewska,51.1238940800,16.9874667700
Nowy_Dwór,51.1125872800,16.9599295600
Kolista,51.1327370900,16.9738810400
pl._Srebrny,51.0984416500,16.9961696100
Bujwida,51.1133642500,17.0667942100
Nyska,51.0830575600,17.0544017000
Kiełczówek,51.1194904100,17.1792128500
Kajdasza,51.0535006770,17.0580351760
DWORZEC_NADODRZE,51.1243901500,17.0333860400
Kamiennogórska_(Ośrodek_dla_niewidomych),51.1425993300,16.8997371700
Odolanowska,51.1662150000,17.1283820000
Mielecka,51.0896265800,17.0004196200
Orlińskiego,51.1221205200,16.9719204400
Zwycięska,51.0596891500,17.0056594100
Kościelna,51.0638818600,16.9838994700
Kadłubka,51.0764765300,16.9686605800
Uniwersytet_Ekonomiczny,51.0891316000,17.0284641700
Mirków_-_Stadion,51.1675704100,17.1644461700
Pereca,51.1011171600,17.0080775100
JERZMANOWO_(Cmentarz_II),51.1231926300,16.8827889600
Kętrzyńska,51.1309653600,17.0740608700
Dobroszycka,51.1513435300,17.1266710100
Wejherowska,51.1291718500,16.9853284800
KOZANÓW,51.1374778700,16.9687557600
Hala_Orbita,51.1322068200,16.9897592300
Dworska,51.1437776400,16.9529776600
pl._Srebrny,51.0984093200,16.9954765200
Starodębowa,51.1673054900,17.1059007000
Kmieca,51.1052327000,17.1457403400
Królewska,51.1555831300,17.1290185700
Ołtaszyn,51.0568003800,17.0222771800
PARK_POŁUDNIOWY,51.0736373900,17.0124948200
Trzmielowicka,51.1409576600,16.8546078700
Św._Katarzyna_-_szkoła,51.0254970000,17.1147820000
ZAWALNA,51.1343026500,17.0372263100
Ojca_Beyzyma,51.0906467900,16.9922862000
Hartmana,51.1599490000,16.8771594500
Skarżyńskiego,51.1092096100,16.9041677300
PILCZYCE,51.1366514700,16.9480223600
Kamień_Jantarowa,51.1675219700,17.2264468700
Iwiny_-_Kolejowa,51.0397000000,17.0740870000
Nowowiejska,51.1242394000,17.0449878900
Łużycka,51.1362300800,17.0164017000
Siechnice_-_Staszica,51.0222210000,17.1606040000
Gajowa,51.0919384600,17.0400436800
C.H._Korona,51.1404469700,17.0940870700
ŻAR,51.1497779800,16.8342710000
JAKSONOWICE,51.2494584000,17.2451136000
OSOBOWICE,51.1374777700,16.9936599100
Łosice,51.2167830000,17.2051533000
Kamienna_(Widna),51.0862699700,17.0448769600
Wrocławski_Park_Przemysłowy,51.1125054600,16.9934106100
BROCHÓW,51.0589704200,17.0864756900
Gromadzka,51.1292307400,16.8548804800
Górnicza,51.1399021200,16.9594143300
Polanowicka,51.1700628700,17.0236699200
Na_Niskich_Łąkach,51.0962539600,17.0565709000
EPI,51.0981847300,17.0304730000
Stalowa,51.0995606500,17.0006904600
Tunelowa,51.0648777300,17.0654839500
Tczewska,51.1306065700,17.1119496900
Krępicka,51.1513831800,16.8561835800
Piramowicza,51.1030638600,17.0957370100
DW._ŚWIEBODZKI,51.1084941300,17.0176683400
KAMIEŃSKIEGO_(pętla),51.1507006200,17.0432173400
Karłowicza,51.1170463300,17.0864598400
Na_Niskich_Łąkach,51.0966840400,17.0577493300
Inżynierska,51.0945401200,16.9919639100
Żerniki_Wr._-_Orla,51.0358500000,17.0579340000
Mielecka,51.0897803900,17.0001582400
Spółdzielcza,51.1026601700,17.1024250500
Roweckiego,51.0506420100,17.0304024400
Metalowców,51.1324312000,16.9577751900
Jarnołtowska_(Samotworska),51.1200838600,16.8502475600
Dyrekcyjna,51.0943013600,17.0322290900
Zajezdnia_Obornicka,51.1487374400,17.0210685900
Świętokrzyska,51.1172973300,17.0441863200
ROD_Mieczyk,51.0641251200,17.0692762000
Jeleniogórska,51.1453345700,16.8780290600
Ibn_Siny_Avicenny,51.0883341100,16.9523855800
Poświęcka,51.1560296400,17.0337226900
Białych_Goździków,51.1568032100,17.1009474200
SIECHNICE_-_OSIEDLE,51.0262100000,17.1546500000
Urząd_Wojewódzki,51.1099125400,17.0476905200
Ożynowa,51.0643969800,17.0094561800
Tramwajowa,51.1044668200,17.0846699600
Borowa_-_Stacja_PKP,51.1854524000,17.2801197000
Rakowiecka,51.0972313700,17.0682385200
KSIĘŻE_MAŁE,51.0769998000,17.0844074000
Pasikurowice-Malinowa,51.2095920700,17.1037196200
TRZMIELOWICKA_(Stacja_kolejowa),51.1427507300,16.8625212500
Damrota,51.1264885400,17.0548761000
Irysowa,51.1514322000,17.0173848600
Na_Ostatnim_Groszu,51.1233898900,16.9765406800
POLANOWICE,51.1625272600,17.0459865000
Wolska,51.1466610000,16.8693550000
Opatowicka_nr_127,51.0919275700,17.1330333800
Śliwice,51.1290719500,17.2131062100
Chińska,51.0608851300,17.0817574600
Rdestowa,51.1112747700,16.8880577300
LIPA_PIOTROWSKA,51.1731299600,16.9946675500
Siechnice_-_ZOZ,51.0372700000,17.1376520000
Na_Niskich_Łąkach,51.0970555300,17.0554487900
Tymiankowa,51.1766331200,16.9916496600
Mydlice_I,51.1611939100,17.2778055200
Zębice_-_Trzech_Lip/Prusa,51.0031150000,17.1563680000
Brodzka,51.1568793000,16.9229924000
most_Milenijny,51.1359163400,16.9984428200
Hala_Stulecia,51.1070399600,17.0728323200
RĘDZIN,51.1661503100,16.9667358800
Kurpiów,51.0546745900,17.0268831300
Kępa,51.2386183400,17.2092182200
pl._Wróblewskiego,51.1052627400,17.0480874000
Lubelska,51.1639163100,16.9191472700
Brzezina_-_Osiedle,51.1922540000,16.8334665000
Kamień_I,51.1685296300,17.2135447200
Jarnołtowska_(Samotworska),51.1201541300,16.8498842600
Raków_-_zakład,51.1645300900,17.2724729900
Gąsiorowskiego,51.1442212600,17.0399977900
Kiełczów_-_WODROL,51.1349012500,17.1756012400
Kleczkowska,51.1267293200,17.0279064000
Przebiśniegowa,51.1725207300,17.1133433600
Rynek,51.1110477400,17.0269635300
Szczecińska,51.1224508500,16.9309962300
Mikołowska,51.1111693100,17.1367838100
PRACZE_ODRZAŃSKIE,51.1747050400,16.9066019500
KROMERA,51.1319931000,17.0658681500
Na_Grobli,51.1014735800,17.0673626300
PARK_POŁUDNIOWY,51.0726200500,17.0107435600
KUŹNIKI_(Stacja_kolejowa),51.1262151500,16.9550870400
Bystrzycka,51.1240088700,16.9590017800
Wiaduktowa,51.0754529800,17.0760928600
Piramowicza,51.1029892700,17.0969646500
Topolowa,51.0694651300,17.0804192500
Szczepin,51.1176376900,17.0064837400
Świdnicka,51.1072813000,17.0328509900
Wyścigowa,51.0697063400,17.0120504400
most_Osobowicki,51.1331533800,17.0264207700
Psie_Pole_(Rondo_Lotników_Polskich),51.1478260900,17.1148752300
Kiełczów_-_Rzeczna,51.1298594700,17.1747517700
Ślęza_(ul._Dębowa),51.0385900000,16.9862840000
Górnickiego,51.1162501300,17.0550195200
C.H._Korona,51.1417828200,17.0932825800
Na_Niskich_Łąkach,51.0972808300,17.0554890900
Sosnowiecka,51.0709008200,17.0912699400
Smardzów_-_Reja,51.0273600000,17.0830990000
OSOBOWICKA_(Cmentarz_II),51.1345367600,17.0109551100
BIERUTOWSKA_(Wiadukt),51.1584667300,17.1476851900
Brzezia_Łąka_-_Główna,51.1228741800,17.2615185700
pl._Nowy_Targ,51.1104065200,17.0390255800
STABŁOWICKA_(Ośrodek_zdrowia),51.1668332600,16.8985987100
Oleśniczka,51.1466121900,17.2806309000
Kamienna,51.0849131600,17.0484029500
KOLBUSZOWSKA_(Stadion),51.0939672200,16.9968875900
Witkowska,51.1476971300,16.9885244600
PILCZYCE,51.1363248900,16.9498929700
Azaliowa,51.1641714100,17.1119364000
Daszyńskiego,51.1263180700,17.0477574100
Grabiszyńska,51.1022549400,17.0123390900
PL._JANA_PAWŁA_II,51.1127054600,17.0206180600
Hotel_Wrocław,51.0974777700,17.0251870300
NOWY_DWÓR_(pętla),51.1194207700,16.9515678100
KRZYKI,51.0748550000,17.0062318900
Kosmonautów_(Nowe_Żerniki),51.1391930000,16.9269190000
pl._Orląt_Lwowskich,51.1077807100,17.0222147000
Św._Katarzyna_-_Główna_n_ż,51.0319200000,17.1253240000
PARK_POŁUDNIOWY,51.0726710900,17.0144784300
Łużycka,51.1361168900,17.0166050300
Pisarzowice_-_Odrzańska,51.2050515000,16.8524908000
Parafialna,51.0631572800,17.0322484500
Kowalska_I,51.1266857000,17.1156350600
Januszkowice_-_Wierzbowa,51.2238700800,17.2382264500
BRZEZINA_(pętla),51.2031854000,16.8264570000
Chłodna,51.0751223400,16.9966708600
Wiejska,51.0781745600,16.9641083500
OSOBOWICKA_(Cmentarz_II),51.1344896400,17.0112272400
Kleczkowska,51.1267139500,17.0276264000
Wilkszyn_-_Polna,51.1890493000,16.8661957000
Kiełczów_Ładna,51.1440703700,17.1565970400
Zaporoska,51.0978994000,17.0146602800
Wojanowska,51.1547186300,16.8939071700
Stabłowice,51.1559262300,16.8911354900
ZACHODNIA_(Stacja_kolejowa),51.1160249300,17.0012958900
Urząd_Wojewódzki,51.1086103000,17.0499577900
GAŁÓW_(pętla),51.1118900000,16.8106290000
Borowa_-_skrzyżowanie,51.1945374000,17.2799819000
Złotniki,51.1395055500,16.8916672700
Kowalska,51.1290113100,17.1136299400
Januszkowice_-_Wierzbowa,51.2240190400,17.2384600200
ŁOZINA,51.2322520000,17.1763630000
Żmudzka,51.1440083000,17.1409808300
Park_Tysiąclecia,51.1087356100,16.9432753000
Siechnice_-_CPN_n_ż,51.0391900000,17.1290610000
DWORZEC_GŁÓWNY,51.0992241900,17.0341040100
Krucza,51.0934228300,17.0083676000
POŚWIĘCKA_(Ośrodek_zdrowia),51.1564994400,17.0320980700
Wyszyńskiego,51.1219167500,17.0530296500
Park_Zachodni,51.1298533300,16.9709380000
Nowy_Dwór_(Stacja_kolejowa),51.1198707700,16.9529726300
BLIZANOWICE,51.0701100000,17.1572330000
Dolmed,51.1143586600,17.0026600700
Bajana,51.1306069200,16.9672487900
Strzegomska_56,51.1142978400,16.9846409700
Poznańska,51.1211119100,17.0119443000
Brzezina_-_Chrobrego,51.2014550000,16.8349673000
Ziemniaczana,51.0530275200,17.0935232100
mosty_Mieszczańskie,51.1176037300,17.0248939600
Bałtycka,51.1375866000,17.0306094400
Kępa_-_Skrzyżowanie,51.2412110000,17.1956440000
Kominiarska,51.1691800900,16.9971980000
Armii_Krajowej,51.0878336400,17.0683065300
Wiśniowa,51.0835196100,17.0246700500
Raków_-_skrzyżowanie,51.1676456600,17.2761212000
Serbska_(C.K._Agora),51.1338962000,17.0196455000
Rysia,51.1279101700,16.9905910900
Świeradowska,51.0770466400,17.0462375200
Wołowska,51.1473036700,17.0298673900
Marszowicka,51.1631676200,16.8785105900
DWORZEC_GŁÓWNY,51.0996462200,17.0372634900
Wzgórze_Partyzantów,51.1037869200,17.0384902700
Swojczycka,51.1141998300,17.1161854900
Jutrosińska,51.1463619300,17.0418826300
Kwiska,51.1252752500,16.9834276700
Metalowców,51.1327474000,16.9582917200
Biskupice_Podgórne_LG_Electronics,51.0236840000,16.8909370000
Rondo,51.0906902300,17.0171240100
Bukowina_-_skrzyżowanie,51.2050280000,17.1530480000
Wiślańska,51.1359184100,16.9790481300
Bujwida,51.1133631600,17.0669058200
Hubska,51.0916444200,17.0438784700
Strachowice_General_Aviation,51.1050111500,16.8990643000
SZCZODRE,51.1945076000,17.1827776000
Nowy_Dwór_(Rogowska),51.1186519500,16.9537881200
Słowiańska,51.1235419100,17.0402172300
Psie_Pole_(Rondo_Lotników_Polskich),51.1465900000,17.1153640000
Bagatela,51.1527626500,17.0693892200
Las_Mokrzański,51.1759061700,16.8335489400
GALERIA_DOMINIKAŃSKA,51.1085289400,17.0387010800
Domaszczyn-Dębowa,51.1962510000,17.1521040000
Smocza,51.1033559900,17.1547421600
PL._STASZICA,51.1224624500,17.0302590500
Ołtaszyn,51.0565016200,17.0249606900
PL._DANIŁOWSKIEGO,51.1384677800,17.0586282800
Radwanice_-_Szkoła,51.0486200000,17.1154640000
Bałtycka,51.1377841200,17.0301744800
Zajazdowa,51.1480948200,16.8653655100
Partyzantów,51.1062614300,17.0939924100
Domaszczyn-Trzebnicka,51.1887618000,17.1511882000
Broniewskiego,51.1359043600,17.0353272200
Zagony,51.1005416500,16.9415971600
ROD_Bajki,51.0825281300,17.0343704600
Łukaszowice,51.0158100000,17.0927570000
Góra_Kapliczna,51.1515126800,16.9929223200
Ślęza_(ul._Pszenna_-_autostrada),51.0428572700,16.9912595800
Słowiańska,51.1240128000,17.0427107000
Serbska_(C.K._Agora),51.1337895900,17.0194298200
Dworska,51.1436063900,16.9534481200
BARDZKA,51.0834758500,17.0492901000
Bzowa_(Centrum_Zajezdnia),51.0976554000,16.9930907400
Glinianki,51.1380635300,16.9349894600
CENTRUM_HURTU_UL._GIEŁDOWA,51.0681134100,16.9695234600
Kasprowicza,51.1374410800,17.0529068200
Dmowskiego,51.1164495600,17.0247823500
Wzgórze_Partyzantów,51.1042801600,17.0374018900
LITOMSKA_(ZUS),51.1199086500,17.0101373900
SZYMANÓW,51.1941474000,17.0188466100
Muchobór_Wielki_(Roślinna),51.1022995700,16.9441748400
Solskiego,51.0812013100,16.9677037700
Wejherowska,51.1294515200,16.9866403700
PL._GRUNWALDZKI,51.1111411000,17.0611932900
Park_Brochowski,51.0632764400,17.0748639300
Aleja_Pracy,51.0918696000,16.9853733400
JERZMANOWSKA_(pętla),51.1272973700,16.9024677100
Solskiego,51.0817903600,16.9686697900
Wschowska,51.1451622300,16.8802209200
Ratyń_-_skrzyżowanie,51.1299792900,16.8466710400
BARDZKA,51.0827794400,17.0508081600
Prudnicka,51.0900427600,17.0447006800
Stalowa,51.0996909100,17.0014907300
Gądowianka,51.1192350200,16.9710863800
Ojca_Beyzyma,51.0904155400,16.9924411100
GAJ,51.0769005700,17.0419316500
Godzieszowa,51.2415858000,17.1310259000
Złotnicka,51.1432805300,16.8890339000
Świeradowska,51.0770472100,17.0462380800
STADION_WROCŁAW_(Królewiecka),51.1450275900,16.9479168600
ŚLAZOWA_(pętla),51.1525993200,16.9960965700
Kołobrzeska,51.1210305500,16.9454134200
Hubska,51.0917562600,17.0435789100
Pułtuska,51.0739374700,17.0157181600
Drzewieckiego,51.1215805200,16.9679089200
Kiełczów_-_WODROL,51.1370493800,17.1771802600
Mosty_Warszawskie,51.1283805300,17.0546427100
Bałtycka,51.1366318700,17.0306168000
DWORZEC_GŁÓWNY,51.0996183100,17.0350583000
Sudecka,51.0856654900,17.0166093600
Las_Ratyński,51.1232748200,16.8330233700
Wilczyce,51.1330964600,17.1429171600
Transbud,51.0837238900,17.0596581100
Ślęza_(ul._Pszenna_-_autostrada),51.0429274300,16.9911233700
RACŁAWICKA_(pętla),51.0775900000,16.9847640000
Braterska,51.0676757400,16.9992089800
BARDZKA,51.0829166600,17.0504896100
DWORZEC_GŁÓWNY,51.0996885800,17.0354868800
Dolnośląska_Szkoła_Wyższa,51.1136238500,16.9905764300
Stadion_Wrocław_(Lotnicza),51.1381089700,16.9426408300
Jędrzejowska,51.1581384600,16.9175631500
Krępicka_-_szkoła,51.1500133400,16.8604490700
Centrostal,51.1584095200,17.0089604300
pl._Bema,51.1175088800,17.0421978100
Gałczyńskiego,51.0550544200,17.0322110100
Grunwaldzka,51.1150209000,17.0677333000
Jarocińska,51.1419203400,16.9906040500
Karwińska,51.0820457700,17.0769832000
Psie_Pole_(Rondo_Lotników_Polskich),51.1481929100,17.1174114300
Zakrzowska,51.1516515900,17.1156409200
DH_Astra,51.1279632400,16.9762310900
Wołowska,51.1473691300,17.0302713100
most_Osobowicki,51.1331639300,17.0263515200
Renoma,51.1042904300,17.0299979500
Zagłębiowska,51.0740204200,17.0880132600
PETRUSEWICZA,51.0923060000,17.0307410000
Obornicka_(Obwodnica),51.1574756400,17.0094034200
Góra_Kapliczna,51.1512761800,16.9929207400
Gęsia,51.1318919400,17.0877611700
FAT,51.0941263200,16.9783528000
Łukaszowice,51.0160700000,17.0928330000
Białych_Goździków,51.1569269900,17.0993175900
STARODWORSKA_(ZUW),51.0712800000,17.1173540000
KIEŁCZOWSKA_(LZN),51.1465803400,17.1247318700
Trawowa,51.0972703700,16.9493911900
Borowska,51.0893095800,17.0338960000
Gazowa,51.0782827300,17.0688517100
HALLERA,51.0871386900,17.0124994200
KRZYKI,51.0747356600,17.0070886800
Krępicka_-_szkoła,51.1501949100,16.8600396000
PSIE_POLE_(Stacja_kolejowa),51.1496402100,17.1196140500
PETRUSEWICZA,51.0920840000,17.0318030000
Las_Osobowicki,51.1478158900,16.9842128500
Graniczna_(Strachowicka),51.1108012000,16.8985760300
Wolska,51.1469110000,16.8693790000
Nowy_Dwór_(Rogowska),51.1186231100,16.9548696300
Śrubowa,51.1124317600,17.0010101300
RUBCZAKA_(Stacja_kolejowa),51.1433057600,16.8663781800
Łozina_-_Milicka,51.2330553000,17.1773739000
ROD_Mieczyk,51.0638894900,17.0724922200
Samotwór_-_Dębowa,51.1067160000,16.8365920000
Pola,51.1367486200,17.0446982300
Kotowice_-_Główna,51.0249480000,17.2316700000
Kasprowicza,51.1378651500,17.0536707600
Sanocka,51.0932632800,17.0300793500
DWORZEC_AUTOBUSOWY,51.0965745500,17.0329804700
Groblice_II-Kotowicka,51.0136830000,17.1752490000
Armii_Krajowej_(Bogedaina),51.0853469400,17.0652888100
Chociebuska,51.1146730400,16.9580598300
Mydlice_I,51.1607352300,17.2783324400
Bierutowska_75,51.1559648100,17.1406814300
Wilkszyn_-_Miłoszyn,51.1827212000,16.8725008000
Trawowa,51.0970587400,16.9505113100
Krakowiany,51.2641553400,17.1907125500
Wilkszyńska,51.1736440100,16.8862201500
Sulimów,51.0010080000,17.1260740000
Metalowców,51.1322913500,16.9565849600
C.H._Korona,51.1408418900,17.0871082700
PRACZE_ODRZAŃSKIE_(Stacja_kolejowa),51.1713957000,16.9024931000
GRABISZYŃSKA_(Cmentarz),51.0905846700,16.9769745800
MUCHOBÓR_MAŁY_(Stacja_kolejowa),51.1125786600,16.9706042000
Na_Niskich_Łąkach,51.0966795600,17.0566469200
Wilczyce_-_Szkoła,51.1300589700,17.1506012500
Centrum_Zarządzania_Kryzysowego,51.1146256000,16.9718827800
Monte_Cassino,51.1056956200,17.1050499900
GRABISZYŃSKA_(Cmentarz),51.0896217000,16.9766622100
TARNOGAJ,51.0785056000,17.0639519700
Zwycięska,51.0589179100,17.0068889100
KROMERA,51.1322240600,17.0651489300
Północna,51.1570317500,16.9344602800
Hutmen,51.0961267200,16.9859878700
Śrubowa,51.1123145200,17.0010884800
Morwowa,51.0768883600,17.0506457900
GALERIA_DOMINIKAŃSKA,51.1089157400,17.0399095500
PL._GRUNWALDZKI,51.1116227600,17.0599651200
Długołęka_-_Kościół,51.1730691900,17.1924734100
Biskupice_Podgórne_LG_Innotek,51.0181660000,16.8888120000
Radwanice_-_Skrajna,51.0611900000,17.1012110000
Opera,51.1056358700,17.0318566200
Księska,51.0767904900,17.0892144900
Skierniewicka,51.0781529100,17.0149210000
Kamień_II,51.1670425200,17.2191781300
Łosice,51.2165927000,17.2038949000
Opatowicka_nr_85,51.0952330900,17.1224232100
ROD_Oświata,51.1019507300,16.9728020700
Domaszczyn_-_skrzyżowanie,51.1887731000,17.1503844000
PL._GRUNWALDZKI,51.1121887500,17.0633575100
Hermanowska,51.1222790000,16.9558990000
KUŹNIKI_(Stacja_kolejowa),51.1262355100,16.9548581600
Hartmana,51.1603831800,16.8774650100
KRAKOWSKA_(Centrum_handlowe),51.0899701900,17.0648925200
Widawa,51.1753073700,17.0227755900
Krucza_(Mielecka),51.0932560600,17.0024924700
ZAKRZÓW,51.1624766000,17.1251204200
pl._Strzegomski_(Muzeum_Współczesne),51.1132386800,17.0078862500
Bukowskiego,51.0765840000,16.9782130000
KOWALE,51.1289633300,17.1018384000
Pasikurowice-cmentarz,51.2056070000,17.1008910000
Siedlec-skrzyżowanie,51.2340188000,17.1214703100
Park_Wschodni,51.0848852000,17.0722915500
Łozina_-_Wrocławska,51.2303305000,17.1728097000
PSIE_POLE_(Stacja_kolejowa),51.1495443400,17.1189480200
Strachowice_General_Aviation,51.1051401688,16.8988431886
DWORCOWA,51.1011492400,17.0400173500
Wiejska,51.0770027600,16.9641515900
Oławska,51.1086347800,17.0339872300
Narodowe_Forum_Muzyki,51.1081080000,17.0268200000
Wallenroda,51.1561601200,17.1204658300
Brochowska,51.0677280600,17.0944196000
Wiśniowa,51.0832368700,17.0240315000
Ogród_Botaniczny,51.1165953300,17.0520642200
DOMASZCZYN,51.1880759000,17.1648009000
Park_Staromiejski,51.1049990100,17.0371063000
NOWY_DWÓR_(pętla),51.1194915200,16.9517771400
PIECOWICE,51.1445061300,17.2171950400
Kiełczów_-_Boczna,51.1374282200,17.1886397600
Sudecka,51.0847899900,17.0189261000
Turoszowska,51.1527705700,16.9473097800
JANÓWEK_(WOŚ),51.1917403100,16.9060830700
Olsztyńska,51.1393859700,17.0951032000
Sąsiedzka,51.0667437300,16.9946541100
Piwnika_-_Ponurego,51.1495054200,17.1110523200
Kosmonautów_(Nowe_Żerniki),51.1390510000,16.9271760000
Krakowska,51.0927741200,17.0611202900
Park_Tysiąclecia,51.1092177700,16.9415729200
Kotowice_-_Ogrodowa,51.0218300000,17.2313800000
Komuny_Paryskiej,51.1015229100,17.0474334700
Brücknera,51.1384525600,17.0817861900
Żerniki_Wr._-_Kolejowa,51.0301500000,17.0623200000
Jaworowa,51.0815133800,17.0225904300
PSIE_POLE_(Stacja_kolejowa),51.1505801000,17.1205503400
Park_Wschodni,51.0851935000,17.0720408200
Urząd_Wojewódzki,51.1098023400,17.0479983100
Husarska,51.0602018500,17.0012068000
Brochowska,51.0691156800,17.0929395700
Gajowa,51.0917270400,17.0401052200
Kowalska_56,51.1364754100,17.0974021900
Obornicka_(Obwodnica),51.1579494300,17.0099928900
ZACHODNIA_(Stacja_kolejowa),51.1160666300,17.0004452200
KUŹNIKI,51.1238970000,16.9508620000
Twardogórska,51.1527340800,17.0435032200
Marszowicka,51.1630125700,16.8783571200
Kajdasza,51.0538957081,17.0579320993
Pereca,51.1010779000,17.0074396800
Sanocka,51.0933931000,17.0304163200
Krasińskiego,51.1058589600,17.0433408200
Dmowskiego,51.1169654800,17.0236462200
Daszyńskiego,51.1267406800,17.0484465900
Bojanowska,51.1651292500,16.8813582900
Wilczyce_-_Wilczycka,51.1292910800,17.1549483200
OSOBOWICKA_(Cmentarz),51.1351730000,17.0056344200
Starodębowa,51.1673829400,17.1059324800
Partyzantów,51.1063131700,17.0920731300
Średzka,51.1453562200,16.8666079400
Skarbowców,51.0669985300,16.9912763800
Piastowska,51.1162081500,17.0609070400
Żmigrodzka_(Obwodnica),51.1549670100,17.0291782400
Twardogórska,51.1529312900,17.0437008900
Grabiszyńska,51.1024208700,17.0136450500
Budziwojowice,51.2230897200,17.1879813700
Wyszyńskiego,51.1223244700,17.0519629100
Januszkowice,51.2211711000,17.2388715000
DWORZEC_NADODRZE,51.1243923100,17.0340215600
mosty_Mieszczańskie,51.1175254100,17.0255051600
ŁOZINA,51.2324130000,17.1754620000
KRAKOWSKA_(Centrum_handlowe),51.0895698100,17.0657194900
OSOBOWICE,51.1376517300,16.9936403900
Kiełczów_-_Sielska_Dolina,51.1240500000,17.1753750000
GAJ,51.0771603500,17.0399816000
pl._Bema,51.1173949200,17.0409097100
Karwińska,51.0812736800,17.0767333800
Łozina_-_Wrocławska,51.2303482000,17.1727526000
Grabiszyńska,51.1020988200,17.0124409500
Reja,51.1128218300,17.0554092900
Sanocka,51.0932815900,17.0302326400
Bukowskiego,51.0767220000,16.9778300000
Broniewskiego,51.1353940300,17.0364704500
Siechnice_-_CPN_n_ż,51.0399500000,17.1278480000
Pisarzowice_-_Odrzańska,51.2052389000,16.8525611000
Grochowa,51.0971763900,17.0040351300
Biskupice_Podgórne_Dong_Seo/Dong_Yang,51.0207780000,16.8962960000
Grabowa,51.1397849700,16.9222746600
Kolista,51.1332341200,16.9740393900
Radio_i_Telewizja,51.0718578200,17.0060188100
JANÓWEK_(WOŚ),51.1917211000,16.9063005900
GALERIA_DOMINIKAŃSKA,51.1060888000,17.0380072600
Brzezia_Łąka_-_cmentarz,51.1225665700,17.2389121900
Borowa_-_skrzyżowanie,51.1956419000,17.2802120000
Katedra,51.1134442000,17.0502179500
Urząd_Wojewódzki,51.1085221900,17.0502200000
Wilczyce,51.1330209100,17.1428825800
JERZMANOWO_(Cmentarz_I),51.1240939500,16.8850145500
Żmudzka,51.1446806500,17.1409566500
Żernicka_(Stacja_kolejowa),51.1269802100,16.9138502600
Bielany_-_Kwiatowa,51.0333900900,16.9665450000
Strachowicka,51.1236751000,16.9168737800
Prusa,51.1194764100,17.0574045500
pl._Strzegomski_(Muzeum_Współczesne),51.1131478500,17.0069625800
Kolista,51.1330014600,16.9728653000
Kościuszki,51.1002161400,17.0454389000
Krucza,51.0935887800,17.0099333100
Mokrzańska,51.1473094900,16.8541876400
DWORZEC_NADODRZE,51.1243152200,17.0339979800
Wiśniowa,51.0843577600,17.0252801300
Szczodre_-_Szkoła,51.1982979900,17.1896988900
Różanka,51.1393994100,17.0211160300
Wielka,51.0937447000,17.0207507700
Długa,51.1188833900,17.0148667100
PL._JANA_PAWŁA_II,51.1121344400,17.0222294200
Gospodarska,51.1181430000,17.1240820000
Kwiatkowskiego,51.0586784600,16.9557872600
Iwiny_(Rondo),51.0434200000,17.0602720000
Ziemniaczana,51.0532118800,17.0931592200
PL._JANA_PAWŁA_II,51.1112182800,17.0214086700
Grabiszyńska,51.1024615200,17.0145108900
BIERUTOWSKA_(Ośrodek_zdrowia),51.1513698900,17.1293076300
Glinianki,51.1379238300,16.9363732100
OSIEDLE_SOBIESKIEGO_(pętla),51.1590262600,17.1324327000
pl._Zgody,51.0998938400,17.0544041000
Prusa,51.1198623800,17.0562503600
Św._Katarzyna_-_Główna,51.0275000000,17.1168330000
Na_Szańcach,51.1188242300,17.0420423700
Ostrowskiego,51.0952951700,16.9728792200
Pawłowicka,51.1683533300,17.1126890200
Chińska,51.0604299400,17.0832314300
pl._Bema,51.1166631500,17.0417125500
Grudziądzka,51.1379492700,17.0750620300
KLECINA,51.0654071700,16.9874249900
Kościuszki,51.0994126300,17.0451461500
Jedności_Narodowej,51.1216700300,17.0437164400
Topolowa,51.0695955700,17.0801135800
RACŁAWICKA_(pętla),51.0776580000,16.9834980000
PETRUSEWICZA,51.0918588100,17.0305786900
PL._STASZICA,51.1228805000,17.0305476900
PSARY,51.1844221500,17.0284019700
Wojszyce,51.0653971400,17.0322254200
Kozia,51.1575170200,16.9266805100
BARDZKA_(Cmentarz),51.0723033200,17.0529123100
Przedwiośnie_(Stacja_kolejowa),51.1602487800,17.1210092900
Siechnice_-_Zacisze,51.0305400000,17.1503640000
Libelta,51.1094591600,17.1084175700
Mosty_Warszawskie,51.1286346300,17.0560976100
Domaszczyn_-_skrzyżowanie,51.1888449000,17.1504508000
GAJ_-_pętla,51.0767818400,17.0509904200
Sztabowa,51.0881975400,17.0141845400
SAMOTWÓR-PAŁAC,51.1029664400,16.8312571600
Radwanice_-_Mickiewicza,51.0569100000,17.1057840000
Gądowianka,51.1201672100,16.9730231300
BISKUPIN,51.1012573000,17.1091415100
Polkowicka,51.1552629200,16.8730698200
Grawerska,51.1752078700,17.0217788500
Przystankowa,51.0715250900,17.0325755300
Kościelna,51.0636966100,16.9813820000
Byków,51.1920206000,17.2401137000
Wyszyńskiego,51.1226808900,17.0525753700
Łozina_-_Milicka,51.2333800000,17.1775650000
Siechnice,51.0305100000,17.1409310000
Kiełczów_(pętla)/Wrocławska,51.1390512100,17.1812691000
Lubelska,51.1634860400,16.9192652800
Śrubowa,51.1119743200,17.0003038100
Wielkopolska,51.1411474200,16.8869030800
Jarzębinowa,51.0812965700,17.0165659600
Św._Katarzyna_-_szpital,51.0194810000,17.1180680000
Brzezińska,51.1494385600,16.8666212800
JERZMANOWO_(Cmentarz_I),51.1241088600,16.8860090600
Bulwar_Dedala,51.1267875000,16.9629985200
Mydlice_II,51.1625800900,17.2789900000
Radomierzyce,51.0433020000,17.0462480000
PORT_LOTNICZY,51.1097200000,16.8814460000
Domaszczyn-Trzebnicka,51.1889086000,17.1509833000
Śniadeckich,51.1197837900,17.0774629500
DWORZEC_GŁÓWNY,51.1007139500,17.0360707800
Wysoka_Osiedle,51.0532800400,17.0036759900
PL._GRUNWALDZKI,51.1117002800,17.0604315100
Zajezdnia_BOREK,51.0782376500,17.0068459900
Mickiewicza,51.1092717900,17.0747493600
Wysoka-Chabrowa,51.0480900600,17.0035423900
Krępice,51.1533960000,16.8156470000
Dmowskiego,51.1166325900,17.0237171200
Przybyły,51.1088700500,16.9187671100
Radwanice_-_Dębowa,51.0442600000,17.1226830000
Spółdzielcza,51.1027866300,17.1027174900
Pisarzowice_-_Szkolna,51.2097013000,16.8511683000
Malinowa,51.0669667400,17.0105973600
Pasikurowice_-_n/ż,51.2158836700,17.1174768500
DWORZEC_NADODRZE,51.1248538300,17.0348736500
Kiełczówek,51.1194486800,17.1789982800
Złotostocka,51.0771464300,17.0603034800
Katedra,51.1136256800,17.0521276900
ZOO,51.1056143300,17.0774178600
Skarbowców,51.0662541300,16.9893355300
Rysia,51.1285206700,16.9899350800
Weigla_(Szpital),51.0764489300,17.0176764900
DH_Astra,51.1284218300,16.9756709700
Brzezinka_Średzka_-_Główna,51.2158882000,16.8369020000
Orla,51.0800251200,17.0077691200
JERZMANOWO_(pętla),51.1205655600,16.8662508700
Kominiarska-plac_sportowy,51.1753141900,17.0116024200
Kątowa,51.1564894300,17.0442129900
Jedności_Narodowej,51.1216704300,17.0437230400
KROMERA,51.1317605400,17.0651457600
Grabiszyńska,51.1015952500,17.0131843500
Maślicka,51.1491117300,16.9453108400
Kochanowskiego,51.1151185900,17.0734512800
Metalowców,51.1324884700,16.9582692100
Na_Grobli,51.1016847600,17.0677242800
TARNOGAJ,51.0785975300,17.0639382600
Jastrzębia,51.0846358300,17.0112074900
MULICKA,51.1450600000,17.1168390000
Borowska,51.0892957400,17.0341406700
Bierzyce_-_wieś,51.2383927100,17.1845802400
Jabłeczna,51.0783962000,17.0342315100
WAŁBRZYSKA,51.0639551200,16.9795281100
Marchewkowa,51.0664376600,16.9741303100
Rondo_Obrońców_Grodna,51.1648396200,17.0281034400
Na_Szańcach,51.1189024500,17.0420412600
PETRUSEWICZA,51.0917530000,17.0320600000
Brodzka,51.1576467400,16.9216401400
Kopernika,51.1119911300,17.0848445100
LEŚNICA,51.1447892900,16.8718135300
GALERIA_DOMINIKAŃSKA,51.1076956300,17.0396649200
Chopina,51.1168782100,17.0819947300
BARDZKA,51.0839914000,17.0492529200
Pomorska,51.1172673500,17.0320013500
KRZYKI,51.0748613600,17.0072281800
Groblice_-_Kolejowa,51.0124370000,17.1715610000
Nyska,51.0829921100,17.0546832000
Młodych_Techników,51.1127756400,17.0119553900
Żerniki_Wr._-_Kolejowa,51.0302300000,17.0619780000
Poleska,51.1460447200,17.1282584700
Bukowina,51.2107663100,17.1401239400
Rynek,51.1110606000,17.0272088000
Kochanowskiego,51.1150654000,17.0732761300
Wallenroda,51.1549666500,17.1191277600
Pułaskiego,51.0981942500,17.0430250300
Ratyń_-_skrzyżowanie,51.1295846700,16.8477604000
Nowy_Dom,51.0934020400,17.1070655300
Wawrzyniaka,51.0765863700,16.9968549000
Morwowa,51.0756785900,17.0524348500
PL._JANA_PAWŁA_II,51.1120850000,17.0204875700
Przyjaźni,51.0697348700,17.0040088200
Bielany_-_Boczna,51.0373768200,16.9681605600
Broniewskiego,51.1363434500,17.0366867900
Niedźwiedzia,51.1216977200,16.9933435700
Górnickiego,51.1163345900,17.0558727900
Rymarska,51.0793500000,16.9916410000
ZAWALNA,51.1342531700,17.0371479900
Krynicka,51.0796893700,17.0505028800
Popowice,51.1260430400,16.9966930700
KOZANÓW,51.1375588400,16.9688781200
Stadion_Olimpijski,51.1168749500,17.0898967300
Bielany_-_Boczna,51.0378031800,16.9685451600
Arkady_(Capitol),51.1012407300,17.0297595300
DWORZEC_NADODRZE,51.1247465500,17.0348941700
Brzezińska,51.1496508400,16.8667172400
Stadion_Wrocław_(Lotnicza),51.1371491800,16.9410612900
Pasikurowice_-_n/ż,51.2159089100,17.1173187300
Kliniki,51.1093224100,17.0660967800
Wilczyce_-_Dębowa,51.1305210500,17.1633087300
WAŁBRZYSKA,51.0632300400,16.9767633900
Kiełczówek_-_pętla,51.1189967300,17.1862747500
Zagrodnicza,51.1071760100,17.1422417100
Kowale_(Stacja_kolejowa),51.1339367600,17.1022124300
Wiejska,51.0776360200,16.9639160200
Na_Szańcach,51.1193590500,17.0419311100
PL._STASZICA,51.1224894900,17.0304965100
Śniadeckich,51.1201109200,17.0779987400
PSARY,51.1873110000,17.0308790000
Bierdzany,51.0920166300,17.0914006500
Kępińska,51.1444099000,17.0314311400
Rdestowa,51.1109372600,16.8907686000
GALERIA_DOMINIKAŃSKA,51.1084040300,17.0385789900
pl._Zgody,51.0998940500,17.0543140600
Ciechocińska,51.1525570000,16.8834970000
Kościuszki,51.1000415800,17.0444163500
Brzezia_Łąka_-_Główna,51.1231589100,17.2620092900
Os._Przyjaźni,51.0692228100,16.9966602700
Niedźwiedzia,51.1214828200,16.9934177900
Jaworowa,51.0817118000,17.0231520600
Północna,51.1575562100,16.9335171300
STARODWORSKA_(ZUW),51.0713800000,17.1167980000
DWORCOWA,51.1006011500,17.0392713100
KOZANÓW,51.1374775400,16.9683083100
Paulińska,51.1202902400,17.0353334500
Wzgórze_Partyzantów,51.1036847000,17.0372823900
Gęsia,51.1320290400,17.0878363100
Na_Niskich_Łąkach,51.0971004500,17.0560912500
Świstackiego,51.0990054400,17.0501344200
Świdnicka,51.1072061900,17.0326635900
Zagrodnicza,51.1067304600,17.1432352200
Kmieca,51.1046407500,17.1466674300
Trzebnicka,51.1286499100,17.0365318700
most_Milenijny,51.1360049100,16.9983194200
Radwanice_-_Poprzeczna,51.0528900000,17.1100500000
Orla,51.0801037600,17.0080294800
Łozina_-_Nowego_Osiedla_II,51.2332079900,17.1635124600
Krakowska,51.0931094000,17.0606087300
Adamieckiego,51.0732833300,16.9636527200
Zakrzowska,51.1520301100,17.1165644800
Opera,51.1055157100,17.0320637400
Tokary,51.2330720000,17.1403180000
Główna,51.1631701300,16.8966747800
Kiełczowska,51.1455231600,17.1370634200
Janówek,51.1980830000,16.9058919700
Park_Zachodni,51.1287913400,16.9728665600
CENTRUM_HURTU_UL._GIEŁDOWA,51.0682000000,16.9693370000
KŁOKOCZYCE_(pętla),51.1569605300,17.0962815100
Sąsiedzka,51.0667271900,16.9944933100
Piłsudskiego,51.1020379200,17.0253017800
Nowowiejska,51.1243586600,17.0450289200
Borowska,51.0879368200,17.0360526600
Sztabowa,51.0889321500,17.0146463700
FAT,51.0947666500,16.9807672900
Lutynia_Osiedle,51.1372050000,16.7957630000
Graniczna,51.1087178700,16.9092042900
Modra,51.1362553500,16.9667695100
Kiełczów_-_Mleczna,51.1402019600,17.1780840400
Świeradowska,51.0771518800,17.0462618300
Hala_Stulecia,51.1068946800,17.0737202600
Na_Ostatnim_Groszu,51.1225531600,16.9748399600
pl._Orląt_Lwowskich,51.1065124400,17.0217420800
Pawłowicka,51.1696058800,17.1132082300
Uniwersytet_Ekonomiczny,51.0894017200,17.0291905300
Iwiny_(Rondo),51.0427700000,17.0605450000
WOJNÓW_(pętla),51.0947136200,17.1663919400
Poleska,51.1461778800,17.1304934700
Nowowiejska,51.1239173100,17.0441528000
GRABISZYNEK,51.0906694700,16.9889329100
Brzezia_Łąka_-_cmentarz,51.1227209200,17.2391994100
Przedwiośnie_(Stacja_kolejowa),51.1596641900,17.1215061800
LEŚNICA_-_Hermes,51.1458711500,16.8663056000
Gałów_-_Przedszkole,51.1100928700,16.8156050000
Zarembowicza,51.1079148144,16.8994459011
Radwanice_-_Mickiewicza,51.0569100000,17.1059690000
Brochowska,51.0690124800,17.0948041300
pl._Zgody,51.1006393300,17.0531732500
ROD_Zgoda,51.0662839500,17.0592868000
Bierutowska,51.1541496000,17.1367611200
Racławicka,51.0814048600,17.0002057700
MIŃSKA_(Rondo_Rotm._Pileckiego),51.1075314500,16.9495754800
Klimasa,51.0801847400,17.0626517100
Trestno,51.0758000000,17.1456490000
Daszyńskiego,51.1263300000,17.0476616300
Zimowa,51.0706458300,16.9987564800
pl._Legionów,51.1048312500,17.0225798600
Borowska,51.0880667700,17.0364739000
DWORZEC_NADODRZE,51.1247390100,17.0338341400
OPATOWICE,51.0949183300,17.1286193500
PIECOWICE,51.1444156300,17.2168718500
pl._Orląt_Lwowskich,51.1071331900,17.0193938800
Piastowska,51.1162080000,17.0609890100
Raków_-_skrzyżowanie,51.1678916000,17.2757303700
Kwidzyńska,51.1316188000,17.0794718900
GAJ_-_pętla,51.0771230900,17.0495971700
Adamieckiego,51.0742591700,16.9629950300
Żmudzka,51.1454284000,17.1427060700
Widawa,51.1752920900,17.0217570600
Kościuszki,51.1001978000,17.0452882600
SĘPOLNO,51.1139437200,17.1036990900
Małopolska_(Ośrodek_dla_niewidomych),51.1376960800,16.8987096800
Lutynia_Osiedle,51.1374230000,16.7957840000
Młodych_Techników,51.1128750200,17.0119350800
Paulińska,51.1209707300,17.0350993300
Wilczyce_-_Sosnowa,51.1316349100,17.1681809800
Reja,51.1124185400,17.0569279300
Psie_Pole,51.1456250000,17.1110370000
Kotowice_II-Spacerowa/Leśna,51.0254380000,17.2226880000
Siechnice_-_Szkolna,51.0335820000,17.1472330000
Piastowska,51.1158164800,17.0614917600
Karłowicza,51.1169145100,17.0860589800
KOZANÓW_(Dokerska),51.1411263700,16.9640126500
Jabłeczna,51.0777534300,17.0338284800
Maślicka_-_Osiedle,51.1474924300,16.9477391900
Magellana,51.1134611700,17.1222761100
Świeradowska,51.0768454300,17.0479991100
Mydlice_II,51.1621800900,17.2790310000
Szybowcowa,51.1293877300,16.9652179400
Jeleniogórska,51.1451916100,16.8784282200
Dobroszycka,51.1514553900,17.1282492000
PL._GRUNWALDZKI,51.1124589100,17.0608282000
Ogród_Botaniczny,51.1171567400,17.0514722200
Metalowców,51.1330889400,16.9592179100
Gajowicka,51.0879790300,17.0067096800
pl._Bema,51.1169782800,17.0433691300
Siechnice_-_Wiadukt,51.0357600000,17.1364420000
Bierzyce,51.2360076000,17.1840852200
Żmudzka,51.1453473100,17.1426858900
Prusa,51.1198444600,17.0563684700
Orla,51.0801599200,17.0084930900
Borowa_-_szkoła,51.1891701200,17.2791587300
Miodowa,51.1351482500,16.8487416100
DWORZEC_AUTOBUSOWY,51.0972692700,17.0365797600
Drukarska,51.0900688900,17.0202333600
PL._GRUNWALDZKI,51.1119574400,17.0625496500
Jutrosińska,51.1470221400,17.0419950600
Pl._SOLIDARNOŚCI,51.1134095900,17.0179614400
Konduktorska,51.0662080000,17.0549460000
Pietrzykowice,51.1229591200,17.2324348500
Śnieżna,51.1495061000,16.8789305100
Kosmonautów_(Szpital),51.1420698800,16.9050148800
Park_Stabłowicki,51.1596774500,16.8936900200
Klimasa,51.0799002100,17.0623729600
Siechnice_-_Zacisze,51.0305400000,17.1501800000
Prusa,51.1194763200,17.0573170800
Zaprężyn,51.2519651000,17.1929477200
Bierzyce_-_wieś,51.2384036200,17.1848725000
Krynicka,51.0796854400,17.0506705600
Główna,51.1634006900,16.8958143900
Lipska,51.1450717100,16.9873408100
Siechnice_-_Staszica,51.0212890000,17.1595320000
PETRUSEWICZA,51.0918600000,17.0330050000
Szkoła_Żerniki,51.1211917700,16.9268594700
Wysoka-Radosna,51.0487544000,17.0002200500
Tokary_-_osiedle,51.2308562900,17.1350530200
Krępicka,51.1512331000,16.8563744500
Świdnicka,51.1070220600,17.0328506700
Ogród_Botaniczny,51.1174629100,17.0510953200
Piwnika_-_Ponurego,51.1502106000,17.1098420400
Borowa_-_Stacja_PKP,51.1850560000,17.2799705000
TRZMIELOWICKA_(Stacja_kolejowa),51.1433995100,16.8638031000
KIEŁCZÓW_(pętla),51.1394580800,17.1790942600
Ołtaszyn,51.0567868000,17.0237901600
DWORZEC_NADODRZE,51.1248409500,17.0348163400
Malinowa,51.0667177400,17.0105562100
Rondo,51.0911436500,17.0174944400
Wysoka-Chabrowa,51.0479177100,17.0039897400
Krynicka,51.0794074100,17.0503490200
Długołęka_-_Volvo,51.1750453200,17.1799061700
PL._STASZICA,51.1227854600,17.0308200600
PILCZYCKA_(Anima),51.1350960200,16.9691335300
Królewiecka,51.1460958400,16.9448838300
PRACZE_ODRZAŃSKIE,51.1746860700,16.9064144500
Kosmonautów_(Nowe_Żerniki),51.1392750000,16.9269980000
Monopolowa,51.1153852900,17.1116342900
Gorlicka,51.1438095000,17.1193789900
ŚWINIARY_(pętla),51.1966424700,16.9751508600
Psary_-_Parkowa,51.1845100000,17.0412270000
Braterska,51.0675833100,16.9994387300
GALERIA_DOMINIKAŃSKA,51.1080193600,17.0373825200
Tramwajowa,51.1043278700,17.0842120400
Świstackiego,51.0995585900,17.0508984700
Wojnów,51.0971220300,17.1640454700
Armii_Krajowej_(Bogedaina),51.0855263200,17.0662281300
PL._JANA_PAWŁA_II,51.1122343800,17.0228064700
Groblice_-_Kolejowa,51.0125090000,17.1719180000
Byków,51.1907415000,17.2347110000
Słowiańska,51.1236244700,17.0412335800
Dobroszów,51.2163857000,17.2286613000
ZAKRZÓW,51.1628446500,17.1252252900
Ozorzyce-Krasińskiego,50.9990000000,17.0834190000
Opatowicka_nr_127,51.0921835800,17.1329421700
POLANOWICE,51.1628481700,17.0457859800
Sąsiedzka,51.0668736000,16.9948905000
Zakrzowska,51.1507428000,17.1158374700
Bociania,51.1296935200,17.0981946100
MULICKA,51.1453306200,17.1166607300
Rubczaka,51.1440717400,16.8661112600
SOŁTYSOWICE,51.1551703700,17.0644222100
LEŚNICA,51.1446892600,16.8723451000
Morwowa,51.0772526500,17.0517399700
Hotel_Wrocław,51.0977656800,17.0256877100
Jedności_Narodowej,51.1215486000,17.0434567500
HALLERA,51.0867284400,17.0114723100
Kamieńskiego,51.1395609400,17.0327146700
Na_Niskich_Łąkach,51.0977333300,17.0558803700
KROMERA,51.1323779400,17.0630109500
DWORZEC_NADODRZE,51.1243144200,17.0350332100
Złotostocka,51.0773453200,17.0618224100
Serbska_(C.K._Agora),51.1336537900,17.0198858100
Kątowa,51.1561942400,17.0443834300
Park_Staromiejski,51.1051252900,17.0368984800
JERZMANOWSKA_(pętla),51.1275217100,16.9005955800
Domaszczyn-Dębowa,51.1961070000,17.1518300000
Wielkopolska,51.1405879400,16.8875703200
Poprzeczna,51.1466086000,17.0741987400
Smocza,51.1035235300,17.1541204800
Godebskiego_(AWF_Wrocław),51.1138255300,17.0970024400
Radwanice_-_Dębowa,51.0442600000,17.1228670000
Joannitów,51.0940902800,17.0337646200
GAJ_-_pętla,51.0767824000,17.0505479400
PILCZYCE,51.1359477000,16.9505394800
Kleczkowska,51.1274451500,17.0278245300
Siechnice_-_Wiadukt,51.0357600000,17.1362570000
Joannitów,51.0933776900,17.0362072000
Kowieńska,51.1429610300,17.1356792100
Złotnicka,51.1437594200,16.8899994500
Kliniki,51.1095058500,17.0652826500
GAJ,51.0771565900,17.0397758700
Ostowa,51.1621963400,17.0033669300
Pasikurowice-Malinowa,51.2096517000,17.1039384000
Partynice,51.0615495600,16.9976446200
POCZTA_POLSKA,51.0870806000,16.9489530200
Uniwersytet,51.1137545900,17.0322885900
Monte_Cassino,51.1065541500,17.1044502200
Czajkowskiego,51.1391643300,17.0651072100
Arabska,51.0514937000,17.0926688200
Wyścigowa,51.0706036600,17.0113651900
Hala_Targowa,51.1126015000,17.0394897500
Wysoka,51.0460820200,17.0129740100
Zemska,51.1153903100,16.9473666400
Pruszowice_-_las,51.1834086600,17.1448986400
GRABISZYŃSKA_(Cmentarz_II),51.0877532300,16.9753058600
DWORCOWA,51.1000558900,17.0391382300
Samotworska,51.1188100000,16.8477930000
Bukowina_-_skrzyżowanie,51.2051150000,17.1540560000
HALLERA,51.0868153700,17.0129105300
LEŚNICA,51.1447151500,16.8712568500
Bielawa,51.1599867800,17.2523457900
Kępińska,51.1442056100,17.0308209800
Bukowina_-_skrzyżowanie,51.2043290000,17.1538310000
Transbud,51.0837435500,17.0588417700
9_Maja,51.1136047100,17.0914420400
Rynek,51.1097681800,17.0267142700
Bielany_-_skrzyżowanie,51.0390096000,16.9719273700
Śliwowa,51.1549000800,16.9389934200
Irysowa,51.1506472000,17.0178953300
pl._Wróblewskiego,51.1048849400,17.0483389600
Królewiecka,51.1452643200,16.9464290700
KSIĘŻE_WIELKIE,51.0698331700,17.0975348800
Kamienna,51.0856086400,17.0471809300
Szkocka,51.1101418200,16.9688408000
Zwycięska,51.0589698600,17.0070559700
ROD_Pod_Dębem,51.1543370700,17.1046708800
Szkoła_Żerniki,51.1214013500,16.9250679900
9_Maja,51.1135437000,17.0910980000
Stępin,51.2084830100,17.2808881800
LEŚNICA,51.1446593000,16.8724220600
Bałtycka_(Szkolny),51.1385991200,17.0288086600
Wilkszyńska,51.1735436700,16.8866726600
Zaporoska,51.0969611100,17.0156446500
Nowy_Dwór,51.1123561600,16.9608058600
Hermanowska,51.1222380000,16.9556230000
Hippiczna,51.0679444400,17.0088540200
Buforowa,51.0706058800,17.0537077300
DWORZEC_NADODRZE,51.1247491800,17.0349755900
HALLERA,51.0860710600,17.0125515300
Orla,51.0801449600,17.0081865400
Opolska,51.0655358300,17.0968956500
Bałtycka,51.1382819000,17.0293741400
Jastrzębia,51.0842209300,17.0104920200
Maślice_Małe,51.1529305700,16.9401113700
Długołęka_-_Nowy_Urząd,51.1719801700,17.2023083200
PRACZE_ODRZAŃSKIE_(Stacja_kolejowa),51.1721498500,16.9033906600
Radio_i_Telewizja,51.0715518400,17.0057435900
EPI,51.0981254200,17.0317100300
Kominiarska-plac_sportowy,51.1755878100,17.0124025000
Małopolska_(Ośrodek_dla_niewidomych),51.1378757500,16.8977163500
HALLERA,51.0867606000,17.0123529300
DWORCOWA,51.1002777300,17.0392014900
KSIĘŻE_MAŁE,51.0778430800,17.0836356900
Bałtycka,51.1370151400,17.0298151300
Eluarda,51.1465010000,16.8672910000
Warmińska,51.1467358500,16.9383662400
Psie_Pole_(Rondo_Lotników_Polskich),51.1471400000,17.1143630000
pl._Legionów,51.1039349100,17.0224073500
POPOWICE_(Stacja_kolejowa),51.1260957700,17.0035840400
Aleja_Pracy,51.0917529900,16.9852588200
Gromadzka,51.1292442500,16.8538707900
ZĘBICE_-_pętla,51.0051540000,17.1536210000
9_Maja,51.1135576300,17.0922856300
pl._Zgody,51.1006037100,17.0533173300
pl._Nowy_Targ,51.1103870600,17.0391595200
GALERIA_DOMINIKAŃSKA,51.1076112400,17.0396368400
Pułtuska,51.0743182800,17.0150065600
pl._Legionów,51.1043557400,17.0216153800
Małomicka,51.1666983700,16.8875611400
KSIĘŻE_MAŁE,51.0772781900,17.0840056000
Kozia,51.1576890900,16.9276646100
KOZANÓW_(Dokerska),51.1413776200,16.9638668800
Mokrzańska,51.1492093400,16.8546678400
PL._GRUNWALDZKI,51.1111569000,17.0614648300
Bielany_-_MAKRO,51.0456513900,16.9697022700
KLECINA_(Stacja_kolejowa),51.0581600000,16.9879110000
Lekarska,51.1595979500,17.0276124000
Piłsudskiego,51.1018217400,17.0247599100
MIŃSKA_(Rondo_Rotm._Pileckiego),51.1053093900,16.9489282600
Bezpieczna,51.1413600100,17.0263762300
Mickiewicza,51.1085151700,17.0725707300
Sztabowa,51.0887388500,17.0146551500
SĘPOLNO,51.1136450200,17.1033342800
Grabowa,51.1399247800,16.9209347400
Suwalska,51.1517722600,16.9271541000
KLECINA,51.0656686300,16.9873501300
Nowy_Dwór,51.1124954700,16.9596744000
Park_Zachodni,51.1293256100,16.9721211200
Pustecka,51.1399633500,16.8539153800
Łosice,51.2168546000,17.2037153000
PL._JANA_PAWŁA_II,51.1118939900,17.0206968500
Libelta,51.1100021200,17.1086767900
Graniczna,51.1083600200,16.9100751600
Ibn_Siny_Avicenny,51.0871151300,16.9528231600
Husarska,51.0601287200,17.0020983500
Rondo,51.0916774800,17.0162404300
Piramowicza,51.1031808000,17.0963274400
Orzechowa,51.0833436600,17.0394669600
Międzyrzecka,51.0943624900,17.0823601800
Św._Katarzyna_-_szkoła,51.0253310000,17.1144650000
Fiołkowa,51.0921059300,16.9774910100
Jeleniogórska,51.1456283400,16.8760243800
Bzowa_(Centrum_Zajezdnia),51.0975086400,16.9913099400
pl._Orląt_Lwowskich,51.1072991700,17.0214432800
BROCHÓW,51.0589129900,17.0872856600
BIERUTOWSKA_(Wiadukt),51.1581934000,17.1465465800
Wojanowska,51.1549616900,16.8947096600
Arena,51.0950282600,17.0272614900
Szybowcowa,51.1301180700,16.9660210200
Pułaskiego,51.0986714900,17.0439781800
Tunelowa,51.0651283100,17.0646960900
Trzebnicka,51.1279170600,17.0363428100
Grunwaldzka,51.1151340100,17.0667623800
Rymarska,51.0794780000,16.9923810000
Zajezdnia_OŁBIN,51.1238394100,17.0410439100
Armii_Krajowej,51.0868913000,17.0693732600
PARK_POŁUDNIOWY,51.0724375500,17.0109098700
Małopanewska,51.1236660200,16.9877389400
Dolnośląska_Szkoła_Wyższa,51.1124757900,16.9887106800
Jastrzębia,51.0836803300,17.0102912500
Stadion_Olimpijski,51.1170499000,17.0900227400
ZĘBICE_-_pętla,51.0048160000,17.1539430000
Bajana,51.1304830400,16.9669594000
Siechnice,51.0297000000,17.1424310000
Bierutowska_75,51.1557581400,17.1399840800
RĘDZIŃSKA,51.1573876700,16.9488763700
GRABISZYŃSKA_(Cmentarz),51.0899037700,16.9766420300
pl._Bema,51.1170872500,17.0432679700
Orzechowa,51.0829566500,17.0418044700
Szczodre_-_stawy,51.2044730900,17.2049794300
GALERIA_DOMINIKAŃSKA,51.1074017100,17.0397532200
Przebiśniegowa,51.1729953000,17.1135440100
KROMERA,51.1316473700,17.0626302400
pl._Wróblewskiego,51.1060485300,17.0463805200
FAT,51.0946277100,16.9812620600
Gajowicka_(Gimnazjum_nr_23),51.0846041800,17.0038120300
Brzezia_Łąka_-_Lipowa,51.1229568400,17.2429236100
Młodych_Techników,51.1125973900,17.0121382000
Wschowska,51.1448632500,16.8818469500
Bajana,51.1311920500,16.9657363200
HALLERA,51.0859918300,17.0117324300
Zielińskiego,51.0985220000,17.0205051500
Niedźwiedzia,51.1212930400,16.9936183400
Piastowska,51.1157847500,17.0601889900
STADION_WROCŁAW_(Królewiecka),51.1435004200,16.9503300900
Żerniki_Wr._-_Orla,51.0361500000,17.0582690000
Długołęka_-_Nowy_Urząd,51.1712796600,17.2038499700
Bielany_-_Kościół,51.0405756600,16.9693857500
Szewczenki,51.1418492700,17.1231984300
Transbud,51.0835254100,17.0597123500
Berenta,51.1355033400,17.0564686600
Mokra,51.1714601300,16.8377438800
Kościelna,51.0628624200,16.9834090000
Wilczyce_-_Szkoła,51.1297017900,17.1517250700
Dobroszów,51.2158327000,17.2287519000
Wilczyce_-_Sosnowa,51.1314904800,17.1680686700
Trzmielowicka,51.1417087200,16.8553300100
Wyższa_Szkoła_Bankowa,51.1141454600,16.9793515300
Malwowa,51.1669278700,17.1099854200
Wita_Stwosza,51.1107382200,17.0349735200
Kiełczów_-_Rzeczna,51.1293948600,17.1746117700
Blizanowicka,51.0760609100,17.0924123800
Wysoka_Osiedle,51.0531000400,17.0036249900
Bagatela,51.1522133200,17.0700590100
Zalewowa,51.0908089200,17.1345731600
Łozina_-_Nowego_Osiedla_I,51.2334363000,17.1719646600
Uniwersytecka,51.1126320200,17.0358535200
Pomorska,51.1178923100,17.0310019500
Arkady_(Capitol),51.1009390900,17.0289667400
OSOBOWICKA_(Cmentarz_II),51.1349043200,17.0091195400
Mikołowska,51.1107977500,17.1368036600
Gajowicka,51.0884453400,17.0054643500
Pl._Hirszfelda,51.0944897700,17.0163348100
Ogród_Botaniczny,51.1161181000,17.0510732200
FAT,51.0947030200,16.9809392200
Park_Stabłowicki,51.1601889800,16.8937057100
Złotnicka,51.1438728600,16.8897977600
Stanki,51.0763258500,16.9720669200
Kołobrzeska,51.1211968500,16.9449610800
Mosty_Warszawskie,51.1284732000,17.0545791400
Volvo_-_brama_II,51.1185418700,17.1105157600
Kotowice_II-Spacerowa/Leśna,51.0257350000,17.2231330000
Długołęka_-_SELGROS,51.1831516000,17.1985913000
Długołęka_-_Wrocławska,51.1776342700,17.1887702200
Węgrów,51.2644940000,17.2205330000
Końcowa,51.0959813500,16.9621510700
Radwanice_-_Skrajna,51.0611900000,17.1013960000
Spółdzielcza,51.1019015100,17.1026888100
Szczepin,51.1177204600,17.0075345100
Kątna,51.1328295100,17.2838817700
Komuny_Paryskiej,51.1017259800,17.0461160400
Aleja_Pracy,51.0922586200,16.9864164100
Swojczyce,51.1147904000,17.1281076700
Wilkszyn_(pętla),51.1917357000,16.8628661000
Kadłubka,51.0762234400,16.9688686400
Pisarzowice_-_Kolejowa,51.2138342000,16.8473652000
PSIE_POLE_(Stacja_kolejowa),51.1496815200,17.1200050900
Redycka,51.1491673300,17.0752146900
Fiołkowa,51.0922952900,16.9777138000
Wojnów,51.0973272500,17.1634351900
KOZANÓW_(Dokerska),51.1415645500,16.9635930000
Aleja_Pracy,51.0913845800,16.9867018500
BARDZKA,51.0822302500,17.0492639300
KOSZAROWA_(Szpital),51.1416629600,17.0647761500
Brodnicka,51.1482167800,16.9307749700
Św._Katarzyna_-_Żernicka,51.0252500000,17.1132590000
9_Maja,51.1136691900,17.0911197100
Mirków_-_Stadion,51.1680739800,17.1645683100
Skwerowa,51.0961666300,17.0315155700
FAT,51.0951428800,16.9794631200
POŚWIĘTNE,51.1506673900,17.0289560400
Miodowa,51.1355576700,16.8489406600
Jarnołtowska_(Krzeptowska),51.1202335400,16.8565220700
RACŁAWICKA_(pętla),51.0777720000,16.9837450000
Monopolowa,51.1154619200,17.1112129300
Kiełczów_""Biedronka"",51.1427735500,17.1650197100
Kośnego1,51.1247949300,16.8635310600
Siechnice_-_Szkolna,51.0338400000,17.1475140000
Bukowina,51.2105786100,17.1401120700
Pisarzowice_-_Graniczna,51.1968230000,16.8549944000
Urząd_Wojewódzki,51.1104499100,17.0485819200
Mielecka,51.0895219800,16.9996896400
most_Milenijny,51.1366686500,17.0004071000
Pereca,51.1010778400,17.0075234900
most_Grunwaldzki,51.1101332700,17.0555734000
Lekarska,51.1601646900,17.0277247600
WOJANOWSKA_(pętla),51.1556666500,16.8990897200
Wrocławski_Park_Technologiczny,51.1061153700,16.9706863800
Uniwersytet_Ekonomiczny,51.0895357800,17.0272791700
Suwalska,51.1522513600,16.9268182400
Ługowa,51.1592049500,17.0446813800
Dmowskiego,51.1169898900,17.0256625400
Skała,51.2559310000,17.2281940000
Bzowa_(Centrum_Zajezdnia),51.0976122400,16.9919245600
Gwiaździsta,51.0995503700,17.0262885600
Glinianki,51.1385060900,16.9344320800
ROD_Tysiąclecia,51.1116160700,16.9521954300
Bujwida,51.1136734200,17.0676557400
pl._Orląt_Lwowskich,51.1068614100,17.0212558900
Mirków_-_Wolności,51.1634093900,17.1573085200
Gałów_-_ferma,51.1180276000,16.8253587000
Jedności_Narodowej,51.1215483000,17.0435518200
Pisarzowice_-_Kolejowa,51.2137413000,16.8474439000
OPATOWICE,51.0948336300,17.1292184000
Gałowska,51.1135177200,16.8452426300
Kamieńskiego,51.1407474500,17.0321338600
Stabłowice,51.1564929900,16.8913875000
Lamowice,51.0494207800,17.0594421200
Kamienna,51.0849903800,17.0479730000
Połabian,51.0567143100,16.9713183600
Wełniana,51.1608408700,16.9052291400
Nowy_Dom,51.0933543500,17.1072604700
ROD_Bielany,51.0553851700,16.9776400000
Działdowska,51.1331588800,17.1057941900
Pisarzowice_-_Graniczna,51.1972415000,16.8548221000
Komuny_Paryskiej,51.1022548400,17.0466215400
Szkolna,51.1325609400,16.8481176300
Grudziądzka,51.1378804900,17.0736345400
Sztabowa,51.0880624400,17.0143858000
Pasikurowice-Energetyczna,51.2141165100,17.1097413100
Łozina_-_cmentarz,51.2284900000,17.1806760000
Królewska,51.1555519900,17.1292482700
Chełmońskiego,51.1036518100,17.0909484200
STADION_WROCŁAW_(Królewiecka),51.1440074700,16.9496930400
Kamiennogórska_(Ośrodek_dla_niewidomych),51.1424931800,16.9007395500
Jeleniogórska,51.1463339100,16.8763782900
Racławicka,51.0816957000,17.0006320000
Kolista,51.1329353800,16.9727068400
Rynek,51.1112032800,17.0269481100
Jaworowa,51.0803377500,17.0212776300
Nowowiejska,51.1243609700,17.0451328100
Arkady_(Capitol),51.1020902000,17.0294678100
Krakowska,51.0925743300,17.0609456000
POPOWICE_(Stacja_kolejowa),51.1258924200,17.0028523700
Drukarska,51.0897742800,17.0213907500
Wojszyce,51.0658319400,17.0323988000
KIEŁCZOWSKA_(LZN),51.1467764000,17.1209557100
Kiełczowska_(Cmentarz),51.1448648400,17.1494268600
Mroźna,51.1349244300,17.1379010400
Dolnobrzeska,51.1550096700,16.8590301600
most_Osobowicki,51.1330474500,17.0275404900
Aleja_Pracy,51.0912815800,16.9865558100
Zarembowicza,51.1079012900,16.8993525100
Gęsia,51.1318492300,17.0881661100
Park_Szczytnicki,51.1115466600,17.0830265300
Owczarska,51.1517139500,16.8646837100
Pracze_Widawskie,51.1776764800,17.0155968700
pl._Orląt_Lwowskich,51.1073735000,17.0215681200
GALERIA_DOMINIKAŃSKA,51.1085276100,17.0387922100
Jagodno,51.0592203000,17.0564478600
Grabowa,51.1397749600,16.9213887800
Odolanowska,51.1659900000,17.1295520000
KROMERA,51.1316622500,17.0652258100
Mickiewicza,51.1084091800,17.0717206700
Kozanowska,51.1390591400,16.9654023200
Kwidzyńska,51.1317477900,17.0807512200
Mickiewicza,51.1085166800,17.0726607600
Przybyszewskiego,51.1401167300,17.0629669600
Stalowa,51.0992164700,17.0012542200
BROCHÓW_(Stacja_kolejowa),51.0636048200,17.0837437300
Słoneczna,51.0588267100,16.9737796700
Gazowa,51.0781518200,17.0704111800
FAT,51.0945698500,16.9778035600
PRACZE_ODRZAŃSKIE,51.1742539400,16.9082498500
Św._Katarzyna_-_Parkowa,51.0260800000,17.1075510000
Głogowska,51.1176959900,17.0040245600
SĘPOLNO,51.1137701100,17.1037905700
Kiełczów_-_Wrocławska,51.1409341000,17.1743202900
Hutmen,51.0960276600,16.9863183300
Krępice,51.1531270000,16.8146390000
Mielecka,51.0895192000,17.0006031400
OPORÓW,51.0843100000,16.9720010000
Ogród_Botaniczny,51.1169011100,17.0503602800
pl._Srebrny,51.0986091200,16.9969063500
Radio_i_Telewizja,51.0718813600,17.0063211100
Wiśniowa,51.0843160800,17.0236254600
METALOWCÓW_(Ośrodek_sportu),51.1295893900,16.9549576600
Ciechocińska,51.1527640000,16.8840550000
MIŃSKA_(Rondo_Rotm._Pileckiego),51.1072206500,16.9494872000
PL._GRUNWALDZKI,51.1114382700,17.0603531000
Orlińskiego,51.1225167500,16.9729111300
Weigla_(Szpital),51.0769704300,17.0183623200
PAWŁOWICE_(Widawska),51.1734159700,17.1164216700
Oleśniczka_-_skrzyżowanie,51.1550118900,17.2823287300
Trzebnicka,51.1286946500,17.0368436200
Marszowice,51.1678519500,16.8904964100
Dubois,51.1169492400,17.0342119600
TRESTNO_(pętla),51.0747000000,17.1455110000
SIECHNICE_-_OSIEDLE,51.0262100000,17.1544650000
Zbożowa,51.1737389600,16.9115269100
HALLERA,51.0865126500,17.0114967300
Hynka,51.1223775500,16.9616045600
Warmińska,51.1464748300,16.9401998300
Sołtysowicka,51.1438147100,17.0713533200
Stadion_Wrocław_(Lotnicza),51.1383796200,16.9425624700
Maślicka_-_Osiedle,51.1482274400,16.9467456700
Kowieńska,51.1429343600,17.1344098300
Pomorska,51.1180115000,17.0307452500
Dąbrowica,51.2176411400,17.2163361800
Monte_Cassino,51.1064727900,17.1051594100
Nowodworska,51.1137697500,16.9647924500
Górnickiego,51.1163268200,17.0559631700
Karwińska,51.0819435600,17.0769604500
OSOBOWICE_(Stacja_kolejowa),51.1659480200,16.9985915600
BLACHARSKA,51.0821011300,16.9896025300
Szewczenki,51.1417840800,17.1254692100
Gałów_-_Przedszkole,51.1119135000,16.8166652900
Bezpieczna,51.1424594100,17.0256778100
Mokra,51.1715619400,16.8373543400
Michałowice,51.2360370000,17.2197433000
Piramowicza,51.1030818500,17.0964061300
ZABRODZIE,51.0567887900,16.9454119800
KOZANÓW,51.1373875700,16.9688367700
Śnieżna,51.1496842800,16.8793580400
Uniwersytet_Medyczny,51.0747253300,17.0325481300
Kolista,51.1326958400,16.9726114500
ROD_Bajki,51.0834244500,17.0340740400
Bielany_-_PKP,51.0375729600,16.9773535600
DH_Astra,51.1281382200,16.9760575700
Robotnicza_(Centrozłom),51.1095676600,17.0082892300
Ostowa,51.1625585900,17.0024157900
Zwycięska,51.0595318500,17.0062612700
Turoszowska,51.1530520600,16.9476315600
Długołęka_-_Nowy_Urząd,51.1722953700,17.2030984900
Rynek,51.1119722800,17.0272170900
Hala_Orbita,51.1323514000,16.9894391000
Wołowska,51.1481479500,17.0298805600
Międzyrzecka,51.0949543400,17.0807391400
Stępin,51.2088041400,17.2805974900
Przyjaźni,51.0678664200,17.0037727500
Zaprężyn_-_skrzyżowanie,51.2534720000,17.2062540000
OSOBOWICKA_(Cmentarz),51.1350846600,17.0055331100
METALOWCÓW_(Ośrodek_sportu),51.1298659200,16.9549646700
Hotel_Wrocław,51.0980482000,17.0254733100
PL._GRUNWALDZKI,51.1120574500,17.0628862800
Zgorzelisko,51.1389264900,17.1306132600
pl._Srebrny,51.0984846500,16.9961321000
Górnicza,51.1401983600,16.9594507900
Dubois,51.1164097300,17.0332959000
Łozina_-_Ośrodek_zdrowia,51.2347351000,17.1813466000
Brücknera,51.1385841700,17.0814245700
Stalowa,51.0994707600,17.0004263700
Marszowice,51.1674065000,16.8911978100
Kurpiów,51.0548816500,17.0266107900
Hutmen,51.0959695900,16.9853453800
Tramwajowa,51.1042169300,17.0831066900
Raków,51.1702379300,17.2774225400
Siechnice_-_ZOZ,51.0372700000,17.1378360000
Samotworska,51.1191000000,16.8478040000
Gąsiorowskiego,51.1438550100,17.0397542700
KOSZAROWA_(Uniwersytet),51.1404951600,17.0684798900
Zębice_-_Prusa,51.0094520000,17.1662130000
Brzezina_-_Osiedle,51.1925184000,16.8335414000
Dolmed,51.1141388300,17.0023525400
Rękodzielnicza,51.1362357200,16.9603393900
RACŁAWICKA_(pętla),51.0773950000,16.9839380000
Marszowice,51.1668650200,16.8901242700
Szczecińska,51.1225505800,16.9307786400
Zagłoby,51.1098037400,16.9280002300
Widawa,51.1757613100,17.0232191100
Dzielna,51.1388593600,16.9747484300
Św._Katarzyna_-_stacja,51.0297100000,17.1222120000
Wilczyce_-_Dębowa,51.1303269200,17.1628235800
Centrum_Zarządzania_Kryzysowego,51.1146291900,16.9722976100
Gajowicka,51.0886347900,17.0066463300
Broniewskiego,51.1350993400,17.0364976500
Katedra,51.1141993800,17.0507981200
Hala_Targowa,51.1127695100,17.0397359400
Łososiowicka,51.1753050000,16.8822500000
POŚWIĘTNE,51.1514117300,17.0292892100
Krzelowska,51.1778574000,16.8781669900
Volvo,51.1198228600,17.1145789000
NOWY_DWÓR_(pętla),51.1193625700,16.9518957500
Sosnowiecka,51.0704598600,17.0915432900
pl._Wróblewskiego,51.1042237600,17.0483492600
Łozina_-_Nowego_Osiedla_II,51.2332024700,17.1650437800
STABŁOWICKA_(Ośrodek_zdrowia),51.1674958900,16.8992412400
POŚWIĘTNE,51.1502082200,17.0287050100
Katedra,51.1136232700,17.0513247700
FAT,51.0937556100,16.9803761500
LEŚNICA_-_Hermes,51.1460950500,16.8656923700
ZACHODNIA_(Stacja_kolejowa),51.1166283300,17.0003626000
Rogowska,51.1104645400,16.9558800200
Stadion_Olimpijski,51.1169679400,17.0902603700
Psary_-_Parkowa,51.1847500000,17.0404500000
Siedlec-skrzyżowanie,51.2345426000,17.1212836000
Katedra,51.1133172200,17.0500348600
Broniewskiego,51.1358510100,17.0373830600
Gałowska,51.1132364400,16.8450913800
Brodzka,51.1575745900,16.9240635500
Prudnicka,51.0900471900,17.0448159600
KROMERA,51.1320326100,17.0655881200
Łozina_-_Ośrodek_zdrowia,51.2348220000,17.1811790000
Wielka,51.0941514200,17.0210274000
Św._Katarzyna_-_Żernicka,51.0252000000,17.1135730000
KUŹNIKI,51.1229402500,16.9495126200
DWORZEC_AUTOBUSOWY,51.0972677900,17.0322836700
KRZYŻANOWICE,51.1740924200,17.0488776800
Kosmonautów_(Nowe_Żerniki),51.1391650000,16.9273250000
Hala_Stulecia,51.1074278200,17.0726744600
Kwidzyńska,51.1322610500,17.0794591800
Mochnackiego,51.1422877500,17.0367516800
Inflancka,51.1423978500,17.1297809700
Daszyńskiego,51.1267401900,17.0483523400
Hala_Stulecia,51.1070882500,17.0734645200
ROD_Zgoda,51.0660581400,17.0599531500
Kępa_-_Skrzyżowanie,51.2414610000,17.1963630000
Katedra,51.1133059000,17.0498472300
Obornicka_(Obwodnica),51.1570525300,17.0106856000
Kamieńskiego,51.1395513400,17.0315652400
most_Grunwaldzki,51.1102121600,17.0553848800
Połabian,51.0562372400,16.9704749500
Rogowska,51.1103765500,16.9559448100
Parafialna,51.0618126800,17.0322664300
Kamień_I,51.1688015500,17.2134354800
Pereca,51.1011168300,17.0079876300
PL._GRUNWALDZKI,51.1127135300,17.0650486000
Siedlec-szkoła,51.2302701000,17.1149124000
AUCHAN,51.0520648000,16.9740535400
Starodworska,51.0738100000,17.1083680000
Piastowska,51.1153652900,17.0609685000
PILCZYCE,51.1360934100,16.9504506500
KUŹNIKI,51.1235160000,16.9509960000
Lamowice,51.0498241700,17.0594378700
Spółdzielcza,51.1022057200,17.1023223200
Długa,51.1190835700,17.0152833600
Oboźna,51.0596915200,17.0324623800
Prudnicka,51.0892028400,17.0450511600
DWORZEC_GŁÓWNY,51.0996270300,17.0351616700
PL._DANIŁOWSKIEGO,51.1393806500,17.0609120900
Kwidzyńska,51.1315553500,17.0796554100
Kiełczów_-_osiedle,51.1325442000,17.1725084400
Kwidzyńska,51.1305853100,17.0783376700
Wiślańska,51.1363878900,16.9789074900
Zaporoska,51.0969778600,17.0135578800
Złotniki,51.1389365300,16.8934000800
Kwiatkowskiego,51.0587269700,16.9556470700
KOWALE,51.1284171500,17.1021457800
SPISKA_(Ośrodek_sportu),51.0831455300,17.0311058100
Wilczyce_-_stary_młyn,51.1188500400,17.1502849900
Urząd_Wojewódzki,51.1086373700,17.0495530400
Przybyły,51.1089846600,16.9171314200
Grabowa,51.1400562100,16.9209472000
Kromera_(Czajkowskiego),51.1363143000,17.0704444900
Ramiszów-kolonia,51.1888155000,17.1014211000
PSARY,51.1843955600,17.0286792500
Joannitów,51.0933772400,17.0361176600
Krynicka,51.0795393800,17.0507425100
Berenta,51.1357800000,17.0575871100
TARNOGAJ,51.0777923300,17.0646699500
ROD_Bajki,51.0838947200,17.0352944100
Inflancka,51.1423583500,17.1304153200
Brochowska,51.0679344000,17.0943708300
Inowrocławska,51.1155868600,17.0139613900
Siechnice_-_Ogrodnictwo,51.0245030000,17.1528700000
DOMASZCZYN,51.1880675000,17.1651470000
Borowa_-_szkoła,51.1894895500,17.2790538400
Krucza,51.0950533500,17.0086204000
Starodworska,51.0738100000,17.1085530000
LEŚNICA,51.1447905900,16.8714251300
Jaworowa,51.0809699500,17.0222274100
Komandorska,51.0921600900,17.0245164000
Św._Katarzyna_-_Główna,51.0283800000,17.1184370000
Lipska,51.1443278900,16.9871264400
Krzemieniecka,51.0967339800,16.9548996900
Kiełczów_-_Sielska_Dolina,51.1240230000,17.1752030000
Kamieńskiego_(Szpital),51.1491042200,17.0432048100
TYNIECKA_(pętla),51.0759615900,16.9528937500
PL._STASZICA,51.1221422800,17.0307665800
Kowalska,51.1296578800,17.1131234000
RATYŃ,51.1297596400,16.8604872400
Brzezinka_Średzka_-_Główna,51.2158058000,16.8370802000
Ogród_Botaniczny,51.1168194200,17.0502544400
Wysoka-Radosna,51.0487255500,16.9999521600
OSOBOWICKA_(Cmentarz_II),51.1345775700,17.0112481600
DŁUGA_(Politechnika),51.1236143100,17.0109206500
pl._Bema,51.1175025900,17.0421169100
Piastowska,51.1157841300,17.0601010800
Trestno,51.0758000000,17.1454640000
Chłodna,51.0749863500,16.9968312900
Małopolska_(Ośrodek_dla_niewidomych),51.1374574800,16.8988858100
pl._Bema,51.1175134300,17.0410420900
Węgrów,51.2645410000,17.2203640000
Stanisławowska,51.0968383300,16.9468478100
pl._Strzegomski_(Muzeum_Współczesne),51.1127548400,17.0071732900
Górnicza,51.1405898600,16.9592038200
BISKUPIN,51.1010322800,17.1095051500
Strachowskiego,51.0582375000,17.0156518200
Niedźwiedzia,51.1211590400,16.9934766400
Kępa,51.2384501300,17.2097710000
Kępińska,51.1442051000,17.0310752200
Aleja_Wędrowców,51.0886740900,16.9923010800
KAMIEŃSKIEGO_(pętla),51.1506991100,17.0430711500
Moniuszki,51.1194907100,17.0827921400
LEŚNICA,51.1446737300,16.8715548200
Wyszyńskiego,51.1223239800,17.0518703600
Przyjaźni,51.0685021100,17.0035471700
Grochowa,51.0962177400,17.0058089100
Chopina,51.1167369100,17.0816246200
Inżynierska,51.0947688200,16.9911838000
Dworzec_Główny_(Stawowa),51.0994100000,17.0334990000
KRZYKI,51.0757394700,17.0076464900
Krucza_(Mielecka),51.0934121100,17.0037653100
pl._Legionów,51.1048549800,17.0217281600
Ramiszów-kolonia,51.1888152000,17.1016530000
Gajowicka,51.0876546200,17.0067966200
Komuny_Paryskiej,51.1015751000,17.0464211600
Chwałkowska,51.1595240700,16.9107602900
RATYŃ,51.1296803000,16.8606577700
DWORZEC_AUTOBUSOWY,51.0974641500,17.0327766200
Hala_Targowa,51.1126609800,17.0394104900
Poprzeczna,51.1457814800,17.0729631000
Śrubowa,51.1119080700,17.0001085800
Kamieńskiego,51.1409766200,17.0322222300
Las_Mokrzański,51.1761020000,16.8335630000
Śrubowa,51.1112815600,17.0030202800
Zimowa,51.0713285300,17.0000093600
Zębice_-_Trzech_Lip/Prusa,51.0029190000,17.1556600000
BROCHÓW_(Stacja_kolejowa),51.0637473200,17.0824959800
Kwiska,51.1254882000,16.9832065900
Wełniana,51.1611804100,16.9044891100
Kiełczów_""Biedronka"",51.1428818600,17.1649140200
Kiełczowska_(Cmentarz),51.1453417900,17.1480205300
Brodnicka,51.1489517100,16.9304072100
Karwińska,51.0813706000,17.0781845600
Semaforowa,51.0617030100,17.0795609300
Żerniki,51.1236331100,16.9229511900
Słowiańska,51.1234541000,17.0404781200
Kiełczowska,51.1457117100,17.1357537300
Piastowska,51.1153658200,17.0608780600
Zaprężyn,51.2520818900,17.1923899500
Gęsia,51.1320167700,17.0890709400
Końcowa,51.0958214900,16.9624517200
Wrocławski_Park_Technologiczny,51.1050638300,16.9707481600
Bałtycka,51.1371797200,17.0294499300
Uniwersytet_Ekonomiczny,51.0897680300,17.0267317900
Sołtysowicka,51.1424517800,17.0709130900
Jerzmanowo,51.1208448000,16.8766394500
Pomorska,51.1172336100,17.0316115400
Miłoszycka,51.1165595700,17.1271468400
DWORZEC_AUTOBUSOWY,51.0972237700,17.0368519100
Kamieńskiego_(Szpital),51.1486829400,17.0429112300
Rondo_Obrońców_Grodna,51.1647578600,17.0276791400
BARDZKA,51.0825577700,17.0493748100
Michałowice,51.2359095000,17.2199058000
Kąty_Wilczyckie,51.1123201300,17.1809389900
ŻERNIKI_WROCŁAWSKIE,51.0334200000,17.0557170000
TARNOGAJ,51.0786695200,17.0643093200
Kiełczów_-_Wrocławska,51.1412775600,17.1733541100
Byków_-_Lange,51.1876396000,17.2268403000
PL._JANA_PAWŁA_II,51.1122244400,17.0225310600
Rynek,51.1094083200,17.0264757300
Godzieszowa_-_stajnia,51.2374598000,17.1259100000
Główna,51.1629043700,16.8957229600
DWORZEC_GŁÓWNY,51.1000018600,17.0353093500
LEŚNICA,51.1448620800,16.8719590700
PL._GRUNWALDZKI,51.1114348700,17.0598402600
most_Grunwaldzki,51.1101360600,17.0550925200
Ożynowa,51.0649495100,17.0099101300
Młodych_Techników,51.1130337800,17.0125979100
Wiśniowa,51.0835491300,17.0264160100
BARTOSZOWICE_(pętla),51.1025481000,17.1160670600
Owczarska,51.1527587700,16.8635621500
KUŹNIKI,51.1233022100,16.9501394500
Kolejowa,51.1052580200,17.0139121700
Górnicza,51.1399883700,16.9597107400
Szczepin,51.1170944100,17.0079669000
Szczodre_-_Szkoła,51.1981127400,17.1896107900
Renoma,51.1037495200,17.0306378200
Długołęka_-_Kościół,51.1728754300,17.1936051400
Zaprężyn_-_skrzyżowanie,51.2534330000,17.2063590000
Arabska,51.0511576500,17.0923256000
PRACZE_ODRZAŃSKIE,51.1744289900,16.9076276000
Uniwersytet_Ekonomiczny,51.0900816400,17.0291803800
Polanowicka,51.1696374100,17.0241751600
Łosice,51.2167257000,17.2049081000
Zajazdowa,51.1478387100,16.8656115900
Kwiatkowskiego_(Rondo),51.0725259700,16.9536394100
KRAKOWSKA_(Centrum_handlowe),51.0891053100,17.0659851700
Wawrzyniaka,51.0780740000,16.9982022000
Dolnobrzeska,51.1550175700,16.8594144100
Pruszowice_-_las,51.1833116600,17.1449298900
GRABISZYŃSKA_(Cmentarz_II),51.0876858400,16.9751857000
Ślęza_(ul._Dębowa),51.0384550000,16.9861450000
Kołobrzeska,51.1219857100,16.9475415100
Wielka,51.0929713500,17.0194295900
Brzezina_-_Kościół,51.2023321000,16.8327646000
Na_Niskich_Łąkach,51.0962619600,17.0567221800
Śliwice,51.1289368400,17.2140311300
Dubois,51.1170930400,17.0339673900
Arkady_(Capitol),51.1016523800,17.0292595400
Długołęka_-_Volvo,51.1747635700,17.1778164100
Krakowska,51.0933109800,17.0599428100
Samotwór_-_Dębowa,51.1064770000,16.8359480000
Morelowskiego,51.0702261200,16.9682534000
Wielka,51.0942240200,17.0215310400
Szczodre_-_stawy,51.2044680000,17.2053534500
Przyjaźni,51.0685463800,17.0032825400
Brücknera,51.1391682700,17.0808060300
Bierdzany,51.0921170300,17.0912942500
Pola,51.1367169500,17.0431746800
Płońskiego,51.1446192400,16.8673237400
BISKUPIN,51.1009889400,17.1087868800
Park_Szczytnicki,51.1114017700,17.0821702900
Poczta_Główna,51.1078565000,17.0456374200
Radwanice_-_Poprzeczna,51.0528900000,17.1102350000
ROD_Pod_Dębem,51.1537050200,17.1044453700
Bystrzycka,51.1240566300,16.9580712800
Metalowców,51.1338260900,16.9567351200
Trzebnicka,51.1281340600,17.0366644300
Graniczna_(Strachowicka),51.1110179300,16.8982274700
Głubczycka,51.0801595500,17.0800100100
Brodzka,51.1581602600,16.9223663000
BIEŃKOWICE,51.0477088500,17.0910195600
Drzewieckiego,51.1217958200,16.9677468300
pl._Bema,51.1168715800,17.0419618100
pl._Legionów,51.1041631800,17.0225440200
OSOBOWICE,51.1373630200,16.9940769000
DWORZEC_GŁÓWNY,51.1007290600,17.0360707800
Kliniki,51.1093224100,17.0662813900
Żernicka,51.1257694600,16.9117077800
Opolska,51.0649503500,17.0973266400
Zalewowa,51.0904958400,17.1350791100
Arkady_(Capitol),51.1013912100,17.0286990600
LEŚNICA,51.1451806200,16.8719948600
Zajezdnia_GAJ,51.0892658800,17.0296803600
Kowale_(Stacja_kolejowa),51.1341685600,17.1016776000
Strachowskiego,51.0585985900,17.0137882700
Wołowska,51.1484230800,17.0302276200
Żernicka,51.1255770000,16.9123680000
Raków_-_skrzyżowanie,51.1689523800,17.2771614000
MIŃSKA_(Rondo_Rotm._Pileckiego),51.1060820400,16.9501998000
Brzezia_Łąka_-_Lipowa,51.1230771400,17.2431841000
Bielawa,51.1602028300,17.2522432300
Zębice_-_Prusa,51.0091070000,17.1658280000
Kamień_II,51.1667707900,17.2195909000
Raków_-_zakład,51.1643400900,17.2718399900
Gałczyńskiego,51.0542845600,17.0322495300
Rondo,51.0916063600,17.0178479900
Pomorska,51.1180575500,17.0305601600
Zakrzowska,51.1506056200,17.1155360800
LIPA_PIOTROWSKA,51.1727489300,16.9950801900
ŚWIDNICKA_(Dom_Europy),51.1068121200,17.0334133800
Szymanów_-_skrzyż.,51.1884068400,17.0305035300
Kętrzyńska,51.1308779600,17.0744822500
OPORÓW,51.0841500000,16.9718980000
Dmowskiego,51.1162415800,17.0247245000
Gajowicka,51.0881765000,17.0056747900
PL._STASZICA,51.1225510300,17.0308837600
ZAKRZÓW,51.1618697000,17.1244177400
Pułtuska,51.0743019600,17.0159050400
most_Grunwaldzki,51.1101381200,17.0554933300
Siechnice_-_Ogrodnictwo,51.0248280000,17.1525860000
Rondo_Obrońców_Grodna,51.1665236300,17.0273642600
Radwanice_-_Szkoła,51.0486200000,17.1156490000
Kamieńskiego,51.1393462800,17.0331472500
Chwałkowska,51.1597972000,16.9101406700
Kępińska,51.1442188300,17.0312330000
Jędrzejowska,51.1583647700,16.9168876700
Moniuszki,51.1194327700,17.0816041200
Złotnicka,51.1436261400,16.8893468900
Smardzów_-_Reja,51.0273300000,17.0834410000
FAT,51.0940732600,16.9803276600
Poświęcka,51.1565148000,17.0340930700
C.H._Korona,51.1421242700,17.0927085500
Wiaduktowa,51.0752130500,17.0764034900
Maślicka,51.1488387700,16.9455355700
Iwiny_-_Brochowska,51.0405800000,17.0736210000
Szczodre_-_Trzebnicka,51.1905888200,17.1839484100
Kiełczów_Sosnowa,51.1438409400,17.1573375700
Mosty_Warszawskie,51.1280013700,17.0548583700
Transbud,51.0836768100,17.0602039000
Ojca_Beyzyma,51.0903690000,16.9933187300
Bierzyce,51.2357831700,17.1837669600
Zagłębiowska,51.0727551600,17.0891407500
Wejherowska,51.1298272000,16.9851259800
Godebskiego_(AWF_Wrocław),51.1137708800,17.0984612900
Żelazna,51.0961279600,17.0124964900
PIECOWICE,51.1443930000,17.2177190000
Hala_Targowa,51.1127688000,17.0395733100
Rynek,51.1119538700,17.0271183500
Rondo,51.0916681300,17.0158075500
Domaszczyn_-_sklep,51.1895236300,17.1693744400
Nowy_Dwór_(Stacja_kolejowa),51.1195270400,16.9530757300
Wyszyńskiego,51.1219185200,17.0529416500
Kwiska,51.1252750000,16.9835144300
Świdnicka,51.1074360100,17.0328863800
Morwowa,51.0765464300,17.0531701700
Rubczaka,51.1441942900,16.8659648400
Zaporoska,51.0965397500,17.0145216700
PL._GRUNWALDZKI,51.1114443900,17.0599596000
Katedra,51.1142165900,17.0504584200
KOZANÓW_(Dokerska),51.1412835600,16.9640954100
Kościuszki,51.1002515500,17.0454552200
Wilkszyn_(pętla),51.1917357800,16.8628483500
Muchobór_Wielki,51.0988644700,16.9412746000
Pl._Hirszfelda,51.0938214700,17.0179590500
Ogród_Botaniczny,51.1165508400,17.0523867300
Hutmen,51.0958967300,16.9857695900
Wysoka,51.0463100400,17.0121329900
Pruszowice_-_wieś,51.1886642000,17.1342289000
PETRUSEWICZA,51.0914570000,17.0327200800
Kośnego1,51.1247121300,16.8636410200
Wrocławski_Park_Przemysłowy,51.1125666800,16.9942315400
Bulwar_Dedala,51.1273515200,16.9639283500
Tyrmanda,51.1035229500,16.9462130400
Stadion_Wrocław_(Lotnicza),51.1373814700,16.9403289800
Kiełczów_-_Zgodna,51.1376220700,17.1869286600
Kwidzyńska,51.1315845700,17.0779541400
Gajowicka,51.0890964900,17.0067361200
Kasprowicza,51.1380070600,17.0537191700
Kwiska,51.1247132700,16.9844113400
Zemska,51.1164239600,16.9467466100
Bogusławice,50.9978370000,17.1046100000
Hippiczna,51.0684791400,17.0089487100
Słowiańska,51.1236268900,17.0413495500
Rzemieślnicza,51.1714458000,17.0047036000
Ostrowskiego,51.0957226000,16.9728473700
Gajowa,51.0917812800,17.0399864400
Księska,51.0763938800,17.0901978600
Kwiska,51.1255823700,16.9834199800
Krajobrazowa,51.1289803400,16.8396436800
Górnickiego,51.1162530900,17.0549195300
Wilkszyn_-_Miłoszyn,51.1843236000,16.8710786000
Tokary,51.2331110000,17.1403320000
Karwińska,51.0825680100,17.0764368600
KOLBUSZOWSKA_(Stadion),51.0940238500,16.9972875400
Armii_Krajowej,51.0875014300,17.0682828700
Małopanewska,51.1239023600,16.9868138100
Oleśniczka,51.1466091400,17.2804715400
Byków_-_Bar,51.1923501000,17.2473657000
Krucza,51.0941305200,17.0095389000
DH_Astra,51.1278478600,16.9759912400
RUBCZAKA_(Stacja_kolejowa),51.1430309700,16.8668989700
DWORZEC_GŁÓWNY,51.0991877800,17.0343344100
ROD_Oświata,51.1009791100,16.9727983900
Bystrzycka,51.1233331100,16.9587513000
Pisarzowice_-_Szkolna,51.2099469000,16.8514230000
DW._ŚWIEBODZKI,51.1085806700,17.0180662400
Tczewska,51.1314645800,17.1111700100
Psie_Pole,51.1458270000,17.1115630000
Zajączkowska,51.1933045800,16.9781417200
Tramwajowa,51.1042905300,17.0838771700
Mochnackiego,51.1419850600,17.0366010800
KRZYKI,51.0752719000,17.0066644200
ŻAR,51.1500841400,16.8333275800
pl._Orląt_Lwowskich,51.1076744900,17.0210016700
Partynice,51.0613050000,16.9959718300
Łososiowicka,51.1757095400,16.8811538800
PL._GRUNWALDZKI,51.1119811600,17.0640336000
Krucza,51.0921559300,17.0084854600
KLECINA,51.0658163200,16.9881728400
most_Osobowicki,51.1330485300,17.0276312700
Hynka,51.1224620800,16.9621544900
Nowodworska,51.1138580300,16.9647181400
Wilkszyn_-_Polna,51.1886197000,16.8665259000
OPORÓW,51.0841298200,16.9720121500
Muchobór_Wielki,51.0989253500,16.9415527700
Kochanowskiego,51.1151273100,17.0737479000
SZCZODRE,51.1945216000,17.1829318000
Szymanów_-_skrzyż.,51.1884069300,17.0306521000
Bąków,51.2117570200,17.1594742400
Ługowa,51.1587789600,17.0444394600
Zielińskiego,51.0981001900,17.0202284100
Berenta,51.1349714000,17.0577733900
Ślusarska,51.0847614100,16.9905185000
Zgorzelisko,51.1383725500,17.1313198600
Pasikurowice-cmentarz,51.2042599000,17.1009295000
Sowia,51.0737487700,17.0016200900
Bujwida,51.1136338100,17.0674990400
Park_Brochowski,51.0627158000,17.0758671600
Koszarowa,51.1403086600,17.0701030500
Opatowicka_nr_59,51.0950859000,17.1159210000
Tyniecka,51.0721800000,16.9584270000
KUŹNIKI,51.1238390200,16.9499502300
Zajączkowska,51.1928453600,16.9779146300
Rakowiecka,51.0971037900,17.0676725800
Słoneczna,51.0600289200,16.9747878000
Nowowiejska,51.1242391400,17.0448911000
Domaszczyn_-_sklep,51.1900008000,17.1707730000
Kozanowska,51.1389990200,16.9652739400
Armii_Krajowej,51.0866161500,17.0693027800
Stanki,51.0761615000,16.9738343600
Jagodno,51.0587129500,17.0564998800
Jarzębinowa,51.0819217600,17.0167110800
Uniwersytet_Medyczny,51.0752569600,17.0330585000
Małopanewska,51.1240537400,16.9874779200
Pomorska,51.1172335900,17.0317555200
Ojca_Beyzyma,51.0903377300,16.9921321400
Długołęka_-_Wrocławska,51.1776895900,17.1880556400
ROD_Źródło_Zdrowia,51.1506856400,17.1085794000
Sulimów,51.0106000000,17.1248810000
Park_Wschodni,51.0848858600,17.0721940500
Chociebuska,51.1157845300,16.9585619300
